{"TABLA":{"RESULTADO":"0","DESCRIPCION":"Resultado de la operacion Correcta","REG":[{"Node":"1","PosxNode":"433743,5","PosyNode":"4480432","Name":"AV.VALDEMARIN-ALTAIR","Lines":"161/1","Loc":{"Latitude":40.471927154758816,"Longitude":-3.7816069726093966}},{"Node":"2","PosxNode":"433481,3","PosyNode":"4480271","Name":"AV.VALDEMARIN-LA SALLE","Lines":"161/1","Loc":{"Latitude":40.470455874798326,"Longitude":-3.784682905907917}},{"Node":"3","PosxNode":"433656","PosyNode":"4479857","Name":"BLANCA DE CASTILLA-Cº DE LA ZARZUELA","Lines":"161/1","Loc":{"Latitude":40.46674043950265,"Longitude":-3.7825789607042513}},{"Node":"4","PosxNode":"433632","PosyNode":"4479467","Name":"PLEYADES-ANA TERESA","Lines":"161/1","Loc":{"Latitude":40.46322531126303,"Longitude":-3.7828212442963105}},{"Node":"5","PosxNode":"433613,6","PosyNode":"4479245","Name":"PLEYADES-AV.OSA MAYOR","Lines":"161/1","Loc":{"Latitude":40.46122401247942,"Longitude":-3.7830150339024233}},{"Node":"6","PosxNode":"433677,3","PosyNode":"4479860","Name":"BLANCA DE CASTILLA-Cº DE LA ZARZUELA","Lines":"161/2","Loc":{"Latitude":40.46676916491374,"Longitude":-3.7823280464882396}},{"Node":"7","PosxNode":"433502","PosyNode":"4480247","Name":"AV.VALDEMARIN-LA SALLE","Lines":"161/2","Loc":{"Latitude":40.470241334847294,"Longitude":-3.7844362258723727}},{"Node":"8","PosxNode":"433810,5","PosyNode":"4480406","Name":"AV.VALDEMARIN-BLANCA DE CASTILLA","Lines":"161/2","Loc":{"Latitude":40.471698282575055,"Longitude":-3.7808139515436125}},{"Node":"11","PosxNode":"442820","PosyNode":"4480525","Name":"AV.BURGOS-BUGANVILLA","Lines":"14/1","Loc":{"Latitude":40.47343937125706,"Longitude":-3.6745503577849146}},{"Node":"12","PosxNode":"431468","PosyNode":"4480424","Name":"AV.NUESTRA SRA.DE BEGOÑA-LASARTE","Lines":"162/1","Loc":{"Latitude":40.4716704618382,"Longitude":-3.808446968184839}},{"Node":"13","PosxNode":"430783","PosyNode":"4480560","Name":"GUECHO-GOBELAS","Lines":"162/1","Loc":{"Latitude":40.47283877084594,"Longitude":-3.8165417281981964}},{"Node":"14","PosxNode":"430804","PosyNode":"4480564","Name":"GUECHO-GOBELAS","Lines":"162/1","Loc":{"Latitude":40.47287655319485,"Longitude":-3.8162944548229865}},{"Node":"16","PosxNode":"431172","PosyNode":"4480099","Name":"AV.VICTORIA-PADRE HUIDOBRO","Lines":"162/1","Loc":{"Latitude":40.468718334534756,"Longitude":-3.8119031793717495}},{"Node":"18","PosxNode":"431137","PosyNode":"4480129","Name":"AV.VICTORIA-PADRE HUIDOBRO","Lines":"162/2","Loc":{"Latitude":40.4689856788062,"Longitude":-3.812319260387283}},{"Node":"19","PosxNode":"430685","PosyNode":"4480348","Name":"ACCESO A LA A6-AV.VICTORIA","Lines":"162/2","Loc":{"Latitude":40.47092087121981,"Longitude":-3.81767454115769}},{"Node":"20","PosxNode":"430840","PosyNode":"4480498","Name":"GOBELAS-GUECHO","Lines":"162/2","Loc":{"Latitude":40.47228501367318,"Longitude":-3.815862613262223}},{"Node":"21","PosxNode":"431175","PosyNode":"4480366","Name":"MOTRICO-LEQUEITIO","Lines":"162/2","Loc":{"Latitude":40.47112376252225,"Longitude":-3.8118967607386565}},{"Node":"22","PosxNode":"431416","PosyNode":"4480326","Name":"AMOREBIETA-AV.NUESTRA SRA.DE BEGOÑA","Lines":"162/2","Loc":{"Latitude":40.470783369523225,"Longitude":-3.80904973986147}},{"Node":"23","PosxNode":"437709","PosyNode":"4477961","Name":"ESCUELA UNIVERSITARIA DE ESTADISTICA","Lines":"83/2 133/2 162/2","Loc":{"Latitude":40.4499744005115,"Longitude":-3.734588472046475}},{"Node":"24","PosxNode":"446051","PosyNode":"4480263","Name":"GTA.MAR DE CRISTAL","Lines":"125/1 125/2 172/1 172/2 372/1 372/2","Loc":{"Latitude":40.47129529574987,"Longitude":-3.6364143845777708}},{"Node":"28","PosxNode":"441636","PosyNode":"4479802","Name":"Pº CASTELLANA-JUZGADOS","Lines":"5/2 27/2 147/2 522/2 524/2","Loc":{"Latitude":40.46684392998733,"Longitude":-3.688450498532742}},{"Node":"29","PosxNode":"441681,1","PosyNode":"4479809","Name":"Pº CASTELLANA-JUZGADOS","Lines":"5/1 27/1 147/1 522/1 524/1","Loc":{"Latitude":40.46691015617168,"Longitude":-3.687919187425839}},{"Node":"30","PosxNode":"441772","PosyNode":"4479932","Name":"MATEO INURRIA-PZA.DE CASTILLA","Lines":"5/1 70/1 107/1 129/1","Loc":{"Latitude":40.46802456852617,"Longitude":-3.6868583088489286}},{"Node":"31","PosxNode":"441756","PosyNode":"4479957","Name":"MATEO INURRIA-PZA.DE CASTILLA","Lines":"5/2 66/2 70/2 107/2 129/2 174/2","Loc":{"Latitude":40.468248657453394,"Longitude":-3.687049327255784}},{"Node":"32","PosxNode":"441610,7","PosyNode":"4479449","Name":"Pº CASTELLANA-ROSARIO PINO","Lines":"5/2 27/2 147/2 522/2 524/2","Loc":{"Latitude":40.463662178472994,"Longitude":-3.688716429661058}},{"Node":"33","PosxNode":"441649,5","PosyNode":"4479446","Name":"Pº CASTELLANA-ROSARIO PINO","Lines":"5/1 27/1 147/1 522/1 524/1","Loc":{"Latitude":40.46363787900919,"Longitude":-3.6882585294303394}},{"Node":"34","PosxNode":"441580","PosyNode":"4479055","Name":"PZA.DE CUZCO","Lines":"5/2 27/2 40/2 147/2 522/2 524/2","Loc":{"Latitude":40.46011069949503,"Longitude":-3.689042250995731}},{"Node":"35","PosxNode":"441632","PosyNode":"4479229","Name":"PZA.DE CUZCO","Lines":"5/1 27/1 147/1 522/1 524/1","Loc":{"Latitude":40.46168182078222,"Longitude":-3.688444974085759}},{"Node":"36","PosxNode":"441564,3","PosyNode":"4478865","Name":"Pº CASTELLANA-GRAL.YAGUE","Lines":"5/2 27/2 40/2 147/2 522/2 524/2","Loc":{"Latitude":40.4583979933787,"Longitude":-3.6892099219210692}},{"Node":"37","PosxNode":"441595,1","PosyNode":"4478771","Name":"Pº CASTELLANA-GRAL.YAGUE","Lines":"27/1 40/1 126/1 147/1 522/1 524/1","Loc":{"Latitude":40.45755336572563,"Longitude":-3.6888380326345995}},{"Node":"38","PosxNode":"441544,4","PosyNode":"4478641","Name":"Pº CASTELLANA-RAFAEL SALGADO","Lines":"27/2 40/2 126/2 147/2","Loc":{"Latitude":40.456378704332465,"Longitude":-3.689423985670967}},{"Node":"39","PosxNode":"441584,1","PosyNode":"4478640","Name":"Pº CASTELLANA-RAFAEL SALGADO","Lines":"27/1 40/1 126/1 147/1","Loc":{"Latitude":40.456372487373564,"Longitude":-3.688955704905549}},{"Node":"40","PosxNode":"447446,1","PosyNode":"4476712","Name":"SAN ROMUALDO-JULIAN CAMARILLO","Lines":"105/1","Loc":{"Latitude":40.439395326668624,"Longitude":-3.619663928199859}},{"Node":"41","PosxNode":"441510,8","PosyNode":"4478299","Name":"Pº CASTELLANA-PZA.DE LIMA","Lines":"14/2 27/2 40/2 126/2 147/2 150/2 522/2 524/2","Loc":{"Latitude":40.45329545437268,"Longitude":-3.6897887285158895}},{"Node":"42","PosxNode":"441557,1","PosyNode":"4478300","Name":"Pº CASTELLANA-PZA.DE LIMA","Lines":"27/1 40/1 126/1 147/1 150/1 522/1 524/1","Loc":{"Latitude":40.453307719703,"Longitude":-3.6892428219048568}},{"Node":"44","PosxNode":"441571,3","PosyNode":"4478478","Name":"Pº CASTELLANA-PZA.DE LIMA","Lines":"27/1 40/1 126/1 147/1 150/1","Loc":{"Latitude":40.45491222053174,"Longitude":-3.68909174765103}},{"Node":"45","PosxNode":"441567,2","PosyNode":"4478313","Name":"PZA.DE LIMA","Lines":"120/1 120/2","Loc":{"Latitude":40.45342553957178,"Longitude":-3.6891249127499814}},{"Node":"46","PosxNode":"441497,4","PosyNode":"4478068","Name":"Pº CASTELLANA-AZCA","Lines":"14/2 27/2 40/2 126/2 147/2 150/2 522/2 524/2","Loc":{"Latitude":40.4512135611587,"Longitude":-3.689925466186818}},{"Node":"47","PosxNode":"441536,2","PosyNode":"4478063","Name":"Pº CASTELLANA-AZCA","Lines":"27/1 40/1 126/1 147/1 150/1 522/1 524/1","Loc":{"Latitude":40.451171248850954,"Longitude":-3.689467466022842}},{"Node":"48","PosxNode":"441469,8","PosyNode":"4477755","Name":"Pº CASTELLANA-RAIMUNDO F.VILLAVERDE","Lines":"14/2 27/2 40/2 147/2 150/2","Loc":{"Latitude":40.44839197474639,"Longitude":-3.69022208384154}},{"Node":"49","PosxNode":"441452","PosyNode":"4477622","Name":"Pº CASTELLANA-NUEVOS MINISTERIOS","Lines":"7/2 14/2 27/2 40/2 147/2 150/2 522/2 524/2","Loc":{"Latitude":40.44719259768089,"Longitude":-3.690419716397723}},{"Node":"50","PosxNode":"441511,7","PosyNode":"4477784","Name":"Pº CASTELLANA-Pº DE LA HABANA","Lines":"27/1 40/1 126/1 147/1 150/1 522/1 524/1","Loc":{"Latitude":40.4486561687972,"Longitude":-3.689730679511125}},{"Node":"51","PosxNode":"441440","PosyNode":"4477476","Name":"Pº CASTELLANA-NUEVOS MINISTERIOS","Lines":"7/2 14/2 27/2 40/2 147/2 150/2 522/2 524/2","Loc":{"Latitude":40.44587651878785,"Longitude":-3.690547753833611}},{"Node":"52","PosxNode":"441497","PosyNode":"4477441","Name":"Pº CASTELLANA-JORGE MANRIQUE","Lines":"7/1 14/1 27/1 40/1 147/1 150/1 522/1 524/1","Loc":{"Latitude":40.445565235954405,"Longitude":-3.6898724243236827}},{"Node":"53","PosxNode":"441406","PosyNode":"4477136","Name":"PZA.SAN JUAN DE LA CRUZ","Lines":"7/2 14/2 27/2 40/2 147/2 150/2 522/2 524/2","Loc":{"Latitude":40.442811249317415,"Longitude":-3.690917296065035}},{"Node":"54","PosxNode":"441476","PosyNode":"4477151","Name":"PZA.SAN JUAN DE LA CRUZ","Lines":"7/1 14/1 27/1 40/1 147/1 150/1 522/1 524/1","Loc":{"Latitude":40.44295130619863,"Longitude":-3.690093322459376}},{"Node":"56","PosxNode":"441555,8","PosyNode":"4476843","Name":"PZA.DOCTOR MARAÑON","Lines":"7/1 14/1 27/1 40/1 147/1 150/1 522/1 524/1","Loc":{"Latitude":40.440182313487135,"Longitude":-3.6891240805193384}},{"Node":"57","PosxNode":"441649,3","PosyNode":"4476467","Name":"GTA.EMILIO CASTELAR","Lines":"5/2 14/2 27/2 45/2 150/2 501/2 522/2 524/2","Loc":{"Latitude":40.43680169612381,"Longitude":-3.6879871543112133}},{"Node":"58","PosxNode":"441699","PosyNode":"4476553","Name":"GTA.EMILIO CASTELAR","Lines":"7/1 16/1 40/1 147/1","Loc":{"Latitude":40.43757991023752,"Longitude":-3.6874090942110276}},{"Node":"59","PosxNode":"441686","PosyNode":"4476245","Name":"Pº CASTELLANA-Pº EDUARDO DATO","Lines":"5/2 14/2 27/2 45/2 150/2 501/2 522/2 524/2","Loc":{"Latitude":40.43480438945343,"Longitude":-3.6875340989395697}},{"Node":"60","PosxNode":"441748,5","PosyNode":"4476270","Name":"Pº CASTELLANA-Pº EDUARDO DATO","Lines":"5/1 14/1 27/1 45/1 150/1 501/1 522/1 524/1","Loc":{"Latitude":40.435033981152586,"Longitude":-3.6867995528165203}},{"Node":"61","PosxNode":"441598","PosyNode":"4475819","Name":"Pº CASTELLANA-MINISTERIO INTERIOR","Lines":"5/2 14/2 27/2 45/2 150/2 501/2 522/2 524/2 525/1 526/1","Loc":{"Latitude":40.43096060433522,"Longitude":-3.688532421469707}},{"Node":"62","PosxNode":"441660,6","PosyNode":"4475828","Name":"Pº CASTELLANA-MQUES.VILLAMAGNA","Lines":"5/1 14/1 27/1 45/1 150/1 501/1 522/1 524/1","Loc":{"Latitude":40.43104607350376,"Longitude":-3.687795273082695}},{"Node":"63","PosxNode":"441525,9","PosyNode":"4475457","Name":"Pº CASTELLANA-PZA.DE COLON","Lines":"5/2 14/2 27/2 45/2 150/2 501/2 522/2 524/2 525/1 526/1","Loc":{"Latitude":40.427694469576316,"Longitude":-3.6893490897462704}},{"Node":"65","PosxNode":"441533","PosyNode":"4475232","Name":"Pº RECOLETOS-BIBLIOTECA NACIONAL","Lines":"5/1 14/1 27/1 45/1 53/1 150/1 501/1 504/1 522/1 523/1 524/1 525/2 526/2","Loc":{"Latitude":40.42566805983591,"Longitude":-3.6892447022874735}},{"Node":"66","PosxNode":"441589,8","PosyNode":"4475481","Name":"Pº CASTELLANA-PZA.DE COLON","Lines":"5/1 14/1 27/1 45/1 150/1 501/1 522/1 524/1","Loc":{"Latitude":40.427915162218525,"Longitude":-3.6885980316250535}},{"Node":"68","PosxNode":"441447,5","PosyNode":"4475123","Name":"Pº RECOLETOS-BARBARA DE BRAGANZA","Lines":"5/2 14/2 27/2 37/1 45/2 53/2 150/2","Loc":{"Latitude":40.424680122095324,"Longitude":-3.690242521370866}},{"Node":"69","PosxNode":"441274","PosyNode":"4474780","Name":"PZA.DE CIBELES","Lines":"1/2 2/1 9/2 15/2 20/2 51/2 52/2 53/2 74/2 146/2 203/2 516/1 516/2 517/1 517/2 518/1 518/2 519/1 519/2","Loc":{"Latitude":40.42157798395294,"Longitude":-3.6922559967798554}},{"Node":"70","PosxNode":"441286,8","PosyNode":"4474709","Name":"PZA.DE CIBELES","Lines":"1/1 2/2 9/1 15/1 20/1 51/1 52/1 74/1 146/1 505/1 505/2 506/1 506/2 507/1 507/2","Loc":{"Latitude":40.42093928470348,"Longitude":-3.692098567102215}},{"Node":"71","PosxNode":"441349,3","PosyNode":"4474670","Name":"Pº PRADO-PZA.DE CIBELES","Lines":"502/1 502/2 503/1 503/2","Loc":{"Latitude":40.42059236131603,"Longitude":-3.691358284709908}},{"Node":"72","PosxNode":"441392,2","PosyNode":"4474842","Name":"Pº RECOLETOS-PZA.DE CIBELES","Lines":"5/1 14/1 27/1 37/2 45/1 53/1 150/1 501/1 501/2 504/1 504/2 522/1 522/2 524/1 524/2 525/2 526/2","Loc":{"Latitude":40.4221448440366,"Longitude":-3.6908684776285083}},{"Node":"73","PosxNode":"441336","PosyNode":"4474829","Name":"Pº RECOLETOS-PZA.DE CIBELES","Lines":"5/2 14/2 27/2 37/1 45/2 150/2 523/1 523/2 525/1 526/1","Loc":{"Latitude":40.42202377328109,"Longitude":-3.6915297179631126}},{"Node":"74","PosxNode":"441290,1","PosyNode":"4474696","Name":"PZA.DE CIBELES-Pº DEL PRADO","Lines":"34/1 34/2","Loc":{"Latitude":40.42082240721292,"Longitude":-3.692058469974059}},{"Node":"76","PosxNode":"441212","PosyNode":"4474562","Name":"Pº PRADO-BANCO DE ESPAÑA","Lines":"14/2 27/2 37/1 45/2","Loc":{"Latitude":40.41960975593974,"Longitude":-3.6929666439442546}},{"Node":"77","PosxNode":"441174,5","PosyNode":"4474263","Name":"PZA.CANOVAS DEL CASTILLO","Lines":"10/1 14/2 27/2 34/1 37/1 45/2 509/1 510/1 511/1 512/1 513/1 514/1 515/1 517/1 525/1 526/1","Loc":{"Latitude":40.416913567717465,"Longitude":-3.693380992776757}},{"Node":"78","PosxNode":"441293","PosyNode":"4474319","Name":"PZA.CANOVAS DEL CASTILLO","Lines":"10/2 14/1 27/1 34/2 37/2 45/1 509/2 510/2 511/2 512/2 513/2 514/2 515/2 517/2 525/2","Loc":{"Latitude":40.41742641109387,"Longitude":-3.6919894888424953}},{"Node":"79","PosxNode":"441276,3","PosyNode":"4473956","Name":"Pº PRADO-PZA.PLATERIA MTNEZ.","Lines":"10/1 14/2 27/2 34/1 37/1 45/2 509/1 510/1 511/1 512/1 513/1 514/1 515/1 517/1 525/1 526/1","Loc":{"Latitude":40.41415514919376,"Longitude":-3.692152810346451}},{"Node":"81","PosxNode":"441342,2","PosyNode":"4473684","Name":"Pº PRADO-ATOCHA","Lines":"10/1 14/2 27/2 34/1 37/1 45/2 509/1 510/1 511/1 512/1 513/1 514/1 515/1 517/1 525/1","Loc":{"Latitude":40.4117094839886,"Longitude":-3.6913510488751102}},{"Node":"82","PosxNode":"441380,4","PosyNode":"4473699","Name":"Pº PRADO-ATOCHA","Lines":"10/2 14/1 27/1 34/2 37/2 45/1 509/2 510/2 511/2 512/2 513/2 514/2 515/2 517/2 525/2","Loc":{"Latitude":40.411847302651964,"Longitude":-3.690902230078235}},{"Node":"83","PosxNode":"441258,4","PosyNode":"4473446","Name":"PZA.EMPERADOR CARLOS V","Lines":"27/2 34/1 68/1 512/1 515/1 517/1","Loc":{"Latitude":40.40955955068295,"Longitude":-3.692316689758069}},{"Node":"84","PosxNode":"440817,6","PosyNode":"4473285","Name":"RONDA DE ATOCHA","Lines":"27/2 34/1 36/1 41/1 68/1 119/1 512/1 515/1 517/1","Loc":{"Latitude":40.408077960629825,"Longitude":-3.697496532544255}},{"Node":"85","PosxNode":"440808","PosyNode":"4473251","Name":"RONDA DE ATOCHA-TEATRO CIRCO PRICE","Lines":"27/1 34/2 36/2 41/2 69/2 119/2 512/2 515/2 517/2","Loc":{"Latitude":40.40777098920051,"Longitude":-3.6976065032545744}},{"Node":"86","PosxNode":"440507,6","PosyNode":"4473192","Name":"GTA.EMBAJADORES","Lines":"27/1 27/2","Loc":{"Latitude":40.407218074796425,"Longitude":-3.7011410969531244}},{"Node":"87","PosxNode":"440988,5","PosyNode":"4473082","Name":"JOSE ANTONIO ARMONA-Pº STA.Mª CABEZA","Lines":"27/1","Loc":{"Latitude":40.40626136679505,"Longitude":-3.6954637008803104}},{"Node":"88","PosxNode":"441226,9","PosyNode":"4473049","Name":"DELICIAS Nº 14","Lines":"27/1","Loc":{"Latitude":40.40598095018122,"Longitude":-3.692651251233981}},{"Node":"89","PosxNode":"441294","PosyNode":"4473322","Name":"Pº DELICIAS-TORTOSA","Lines":"6/2 19/2 27/1 45/1 513/2 514/2","Loc":{"Latitude":40.40844500733041,"Longitude":-3.691885704513732}},{"Node":"90","PosxNode":"441057","PosyNode":"4474657","Name":"ALCALA-CIRCULO DE BELLAS ARTES","Lines":"5/1 9/1 51/1 52/1 53/1 146/1 150/1","Loc":{"Latitude":40.42045459715365,"Longitude":-3.6948023919819546}},{"Node":"92","PosxNode":"442579,3","PosyNode":"4471883","Name":"MENDEZ ALVARO-EST.SUR DE AUTOBUSES","Lines":"102/2 148/2","Loc":{"Latitude":40.39557135847487,"Longitude":-3.6766088744644247}},{"Node":"93","PosxNode":"440218,6","PosyNode":"4481379","Name":"MONFORTE DE LEMOS-LA VAGUADA","Lines":"49/2 83/2 132/2 137/2","Loc":{"Latitude":40.48094935704959,"Longitude":-3.7053173242762396}},{"Node":"96","PosxNode":"441882,2","PosyNode":"4478361","Name":"CONCHA ESPINA-PZA.SAGRADOS CORAZONES","Lines":"14/2 150/2","Loc":{"Latitude":40.453880031015835,"Longitude":-3.6854146193889483}},{"Node":"97","PosxNode":"441838,2","PosyNode":"4478662","Name":"PADRE DAMIAN-RAFAEL SALGADO","Lines":"150/2","Loc":{"Latitude":40.45658849507839,"Longitude":-3.685961075538538}},{"Node":"98","PosxNode":"441860","PosyNode":"4478663","Name":"PADRE DAMIAN-RAFAEL SALGADO","Lines":"150/1","Loc":{"Latitude":40.45659902891361,"Longitude":-3.6857040750957784}},{"Node":"99","PosxNode":"441959,9","PosyNode":"4478973","Name":"PADRE DAMIAN-JOSE L.GALDIANO","Lines":"150/2","Loc":{"Latitude":40.45939862925539,"Longitude":-3.6845542774554456}},{"Node":"100","PosxNode":"441982","PosyNode":"4478957","Name":"PADRE DAMIAN-JOSE L.GALDIANO","Lines":"150/1","Loc":{"Latitude":40.4592560374831,"Longitude":-3.6842921740363175}},{"Node":"101","PosxNode":"441978","PosyNode":"4479187","Name":"PADRE DAMIAN-ALBERTO ALCOCER","Lines":"150/2","Loc":{"Latitude":40.46132769942907,"Longitude":-3.6843603745416567}},{"Node":"102","PosxNode":"441998,4","PosyNode":"4479146","Name":"PADRE DAMIAN-ALBERTO ALCOCER","Lines":"150/1","Loc":{"Latitude":40.46095977767401,"Longitude":-3.684116029109368}},{"Node":"103","PosxNode":"442000,7","PosyNode":"4479449","Name":"PADRE DAMIAN-PEDRO MUGURUZA","Lines":"150/2","Loc":{"Latitude":40.46368949475626,"Longitude":-3.6841165941132523}},{"Node":"104","PosxNode":"442020,4","PosyNode":"4479413","Name":"PADRE DAMIAN-PEDRO MUGURUZA","Lines":"150/1","Loc":{"Latitude":40.46336656602836,"Longitude":-3.6838809541591266}},{"Node":"105","PosxNode":"442071,9","PosyNode":"4479538","Name":"FRAY.B.SAHAGUN-PZA.M.MOLAS","Lines":"150/2","Loc":{"Latitude":40.46449621279311,"Longitude":-3.6832849530293097}},{"Node":"106","PosxNode":"442077","PosyNode":"4479500","Name":"FRAY.B.SAHAGUN-PZA.M.MOLAS","Lines":"150/1","Loc":{"Latitude":40.46415424780077,"Longitude":-3.6832213319637948}},{"Node":"107","PosxNode":"442266","PosyNode":"4479376","Name":"FRAY.B.SAHAGUN-MENENDEZ PIDAL","Lines":"150/2","Loc":{"Latitude":40.46305035599274,"Longitude":-3.680980881602535}},{"Node":"108","PosxNode":"442267,6","PosyNode":"4479349","Name":"FRAY B.SAHAGUN-MENENDEZ PIDAL","Lines":"150/1","Loc":{"Latitude":40.462807239225114,"Longitude":-3.6809595543868596}},{"Node":"109","PosxNode":"442417,7","PosyNode":"4479286","Name":"ALFONSO XIII-PZA.PRESIDENTE CARDENAS","Lines":"150/2","Loc":{"Latitude":40.462250123059704,"Longitude":-3.679183511513102}},{"Node":"110","PosxNode":"442421,4","PosyNode":"4479266","Name":"ALFONSO XIII-PZA.PRESIDENTE CARDENAS","Lines":"150/1","Loc":{"Latitude":40.4620702105282,"Longitude":-3.6791380583771076}},{"Node":"111","PosxNode":"442734","PosyNode":"4479327","Name":"AV.PIO XII-PZA.PERU","Lines":"16/2 29/2","Loc":{"Latitude":40.46264132959298,"Longitude":-3.675456697781891}},{"Node":"112","PosxNode":"442766","PosyNode":"4479333","Name":"AV.PIO XII-PZA.PERU","Lines":"16/1 29/1 150/1 501/1","Loc":{"Latitude":40.462697585204,"Longitude":-3.6750798214013525}},{"Node":"113","PosxNode":"442717","PosyNode":"4479256","Name":"PZA.DEL PERU","Lines":"51/1 51/2","Loc":{"Latitude":40.46200055756574,"Longitude":-3.675650792254768}},{"Node":"114","PosxNode":"442771,1","PosyNode":"4479520","Name":"AV.PIO XII Nº 21","Lines":"16/2 29/2 150/2 501/2","Loc":{"Latitude":40.46438251710887,"Longitude":-3.67503653439522}},{"Node":"115","PosxNode":"442795,3","PosyNode":"4479514","Name":"AV.PIO XII-CENTRO COMERCIAL","Lines":"16/1 29/1 150/1 501/1","Loc":{"Latitude":40.46433013298051,"Longitude":-3.674750564141037}},{"Node":"116","PosxNode":"442820,7","PosyNode":"4479809","Name":"AV.PIO XII-COMANDANTE FRANCO","Lines":"16/2 29/2 150/2 501/2","Loc":{"Latitude":40.466989374254126,"Longitude":-3.674477564802741}},{"Node":"117","PosxNode":"442853","PosyNode":"4479849","Name":"AV.PIO XII-COMANDANTE FRANCO","Lines":"16/1 29/1 150/1 501/1","Loc":{"Latitude":40.467351934717925,"Longitude":-3.6741001871339036}},{"Node":"118","PosxNode":"442993,1","PosyNode":"4480192","Name":"AV.PIO XII-NUNCIATURA","Lines":"16/2 150/2","Loc":{"Latitude":40.47045145836526,"Longitude":-3.6724785105493005}},{"Node":"119","PosxNode":"443004","PosyNode":"4480155","Name":"AV.PIO XII-NUNCIATURA","Lines":"16/1 150/1","Loc":{"Latitude":40.47011889381474,"Longitude":-3.6723466134845872}},{"Node":"120","PosxNode":"443025","PosyNode":"4480435","Name":"AV.PIO XII-MARQUES DE TORROJA","Lines":"150/2","Loc":{"Latitude":40.47264269924139,"Longitude":-3.6721240543394478}},{"Node":"123","PosxNode":"442680,8","PosyNode":"4480801","Name":"BAMBU-AV.PIO XII","Lines":"129/2 150/2 174/2","Loc":{"Latitude":40.47591610390054,"Longitude":-3.676217329973719}},{"Node":"124","PosxNode":"442773,3","PosyNode":"4481105","Name":"BAMBU-YUCA","Lines":"129/2 150/2 174/2","Loc":{"Latitude":40.47866104589001,"Longitude":-3.67515357580807}},{"Node":"125","PosxNode":"442831","PosyNode":"4481395","Name":"AV.BURGOS Nº 30","Lines":"129/2 150/2 174/2","Loc":{"Latitude":40.481277464255015,"Longitude":-3.674499029902471}},{"Node":"126","PosxNode":"442854","PosyNode":"4481366","Name":"AV.BURGOS Nº 30","Lines":"129/1 150/1","Loc":{"Latitude":40.481017803127294,"Longitude":-3.6742250722429763}},{"Node":"127","PosxNode":"442876","PosyNode":"4481562","Name":"AV.SAN LUIS-AV.BURGOS","Lines":"129/2 150/2","Loc":{"Latitude":40.48278496836253,"Longitude":-3.6739831863549144}},{"Node":"128","PosxNode":"442901,8","PosyNode":"4481522","Name":"AV.SAN LUIS-AV.BURGOS","Lines":"129/1 150/1","Loc":{"Latitude":40.48242640598888,"Longitude":-3.673675200001956}},{"Node":"129","PosxNode":"443140","PosyNode":"4481403","Name":"AV.SAN LUIS-CONDADO DE TREVIÑO","Lines":"129/2 150/2","Loc":{"Latitude":40.48137074898045,"Longitude":-3.6708542995703604}},{"Node":"130","PosxNode":"443100,7","PosyNode":"4481427","Name":"AV.SAN LUIS-CONDADO DE TREVIÑO","Lines":"129/1 150/1","Loc":{"Latitude":40.48158425919957,"Longitude":-3.6713200984389784}},{"Node":"131","PosxNode":"443247,6","PosyNode":"4481212","Name":"AV.SAN LUIS-SERRANO GALVACHE","Lines":"129/2 150/2","Loc":{"Latitude":40.479657499009825,"Longitude":-3.66956778342585}},{"Node":"132","PosxNode":"443241,7","PosyNode":"4481168","Name":"AV.SAN LUIS-SERRANO GALVACHE","Lines":"129/1 150/1","Loc":{"Latitude":40.47926072450205,"Longitude":-3.669633448918394}},{"Node":"133","PosxNode":"443407","PosyNode":"4481103","Name":"ARTURO SORIA-AV.SAN LUIS","Lines":"29/2 129/2 150/2","Loc":{"Latitude":40.47868645773118,"Longitude":-3.6676775670575568}},{"Node":"134","PosxNode":"443444","PosyNode":"4481096","Name":"ARTURO SORIA-AV.SAN LUIS","Lines":"29/1 125/1 129/1 150/1","Loc":{"Latitude":40.47862591937181,"Longitude":-3.6672404491842148}},{"Node":"135","PosxNode":"443446,3","PosyNode":"4481362","Name":"ARTURO SORIA Nº 315","Lines":"29/2 125/2 129/2 150/2","Loc":{"Latitude":40.48102232143095,"Longitude":-3.6672370404818277}},{"Node":"136","PosxNode":"443453","PosyNode":"4481288","Name":"ARTURO SORIA-CULTURA","Lines":"29/1 125/1 129/1 150/1","Loc":{"Latitude":40.480356153157516,"Longitude":-3.6671513974181877}},{"Node":"137","PosxNode":"443554","PosyNode":"4481502","Name":"ARTURO SORIA Nº 329","Lines":"125/2 129/2 150/2 501/2","Loc":{"Latitude":40.482290831476995,"Longitude":-3.6659789100591764}},{"Node":"138","PosxNode":"443552,8","PosyNode":"4481463","Name":"ARTURO SORIA-DALIA","Lines":"125/1 129/1 150/1","Loc":{"Latitude":40.48193942073356,"Longitude":-3.6659895950921757}},{"Node":"139","PosxNode":"443752","PosyNode":"4481736","Name":"ARTURO SORIA-AV.MANUEL AZAÑA","Lines":"125/2 129/2 150/2 501/2","Loc":{"Latitude":40.484412243851345,"Longitude":-3.663663714755691}},{"Node":"140","PosxNode":"443784","PosyNode":"4481713","Name":"ARTURO SORIA-AV.MANUEL AZAÑA","Lines":"125/1 129/1 150/1","Loc":{"Latitude":40.48420721703443,"Longitude":-3.6632841348485554}},{"Node":"145","PosxNode":"442816","PosyNode":"4480914","Name":"AV.BURGOS Nº 16","Lines":"129/1 150/1","Loc":{"Latitude":40.47694337709634,"Longitude":-3.674632616130716}},{"Node":"146","PosxNode":"442832,3","PosyNode":"4480691","Name":"AV.BURGOS-AV.PIO XII","Lines":"129/1 150/1","Loc":{"Latitude":40.47493561849285,"Longitude":-3.674420226798126}},{"Node":"147","PosxNode":"443348","PosyNode":"4475743","Name":"PZA.MANUEL BECERRA-FCO.SILVELA","Lines":"143/1 143/2 156/1 156/2","Loc":{"Latitude":40.430396985792584,"Longitude":-3.6678953119190187}},{"Node":"148","PosxNode":"443367","PosyNode":"4475370","Name":"DR.ESQUERDO-HERMOSILLA","Lines":"2/1 56/1 68/1 71/1 143/1 156/1","Loc":{"Latitude":40.4270381014301,"Longitude":-3.66763809754174}},{"Node":"149","PosxNode":"443401,4","PosyNode":"4475330","Name":"DR.ESQUERDO-FUNDADORES","Lines":"2/2 56/2 69/2 71/2 143/2 156/2","Loc":{"Latitude":40.42668010153197,"Longitude":-3.6672290261128664}},{"Node":"150","PosxNode":"443341","PosyNode":"4475012","Name":"DR.ESQUERDO-O DONNELL","Lines":"2/1 30/1 56/1 71/1 143/1 156/1","Loc":{"Latitude":40.42381127905946,"Longitude":-3.6679126854323028}},{"Node":"151","PosxNode":"443382","PosyNode":"4475094","Name":"DR.ESQUERDO-JORGE JUAN","Lines":"2/2 30/2 56/2 71/2 143/2 156/2","Loc":{"Latitude":40.42455276938916,"Longitude":-3.6674366982254347}},{"Node":"152","PosxNode":"443313","PosyNode":"4474947","Name":"O DONNELL-DR.ESQUERDO","Lines":"28/2 506/2","Loc":{"Latitude":40.4232238175352,"Longitude":-3.6682369415790785}},{"Node":"153","PosxNode":"443313","PosyNode":"4474919","Name":"O DONNELL-DR.ESQUERDO","Lines":"28/1 203/1 402/1 403/1 506/1 527/1","Loc":{"Latitude":40.42297157874424,"Longitude":-3.668234445467113}},{"Node":"154","PosxNode":"443008","PosyNode":"4474968","Name":"O DONNELL-MAIQUEZ","Lines":"28/2","Loc":{"Latitude":40.4233921606905,"Longitude":-3.6718339869042453}},{"Node":"155","PosxNode":"443006","PosyNode":"4474938","Name":"O DONNELL-MAIQUEZ","Lines":"28/1","Loc":{"Latitude":40.423121768052724,"Longitude":-3.6718548728880602}},{"Node":"156","PosxNode":"442730","PosyNode":"4474988","Name":"O DONNELL-NARVAEZ","Lines":"2/1 28/2 506/2","Loc":{"Latitude":40.42355324217303,"Longitude":-3.675112696916658}},{"Node":"157","PosxNode":"442724","PosyNode":"4474960","Name":"O DONNELL-NARVAEZ","Lines":"2/2 28/1 506/1","Loc":{"Latitude":40.423300590740546,"Longitude":-3.675180899631349}},{"Node":"158","PosxNode":"442389","PosyNode":"4474990","Name":"O DONNELL-AV.MENENDEZ PELAYO","Lines":"2/1 20/2 28/2 506/2 508/2","Loc":{"Latitude":40.42354771751709,"Longitude":-3.679132402065124}},{"Node":"159","PosxNode":"442361","PosyNode":"4474960","Name":"O DONNELL-AV.MENENDEZ PELAYO","Lines":"20/1 508/1","Loc":{"Latitude":40.423275523059075,"Longitude":-3.679459731469428}},{"Node":"161","PosxNode":"441643","PosyNode":"4474876","Name":"PUERTA DE ALCALA","Lines":"1/2 2/1 9/2 15/2 20/2 51/2 52/2 74/2 146/2 504/2 505/2 506/2 507/2","Loc":{"Latitude":40.42246876049728,"Longitude":-3.6879153710766173}},{"Node":"162","PosxNode":"441721,1","PosyNode":"4474766","Name":"PUERTA DE ALCALA","Lines":"1/1 2/2 9/1 15/1 19/2 20/1 51/1 52/1 74/1 146/1 502/1 503/1 505/1 506/1 507/1 508/1","Loc":{"Latitude":40.42148329999829,"Longitude":-3.6869847060458616}},{"Node":"163","PosxNode":"441700,8","PosyNode":"4474864","Name":"PUERTA DE ALCALA","Lines":"28/1 28/2","Loc":{"Latitude":40.42236471042335,"Longitude":-3.687232968012267}},{"Node":"164","PosxNode":"440966,6","PosyNode":"4474690","Name":"GRAN VIA-ALCALA","Lines":"1/1 2/2 46/2 74/1 146/1 602/2","Loc":{"Latitude":40.420745468591164,"Longitude":-3.6958709887908983}},{"Node":"166","PosxNode":"440432,6","PosyNode":"4474849","Name":"GRAN VIA-TRES CRUCES","Lines":"1/2 2/1 46/1 74/2 146/2 516/1 518/1 519/1 520/1 521/1","Loc":{"Latitude":40.42213975911665,"Longitude":-3.7021800945273653}},{"Node":"167","PosxNode":"440454","PosyNode":"4474817","Name":"GRAN VIA-SALUD","Lines":"1/1 2/2 46/2 74/1 146/1 518/2 519/2 520/2 521/2","Loc":{"Latitude":40.421853019935426,"Longitude":-3.701924853033624}},{"Node":"168","PosxNode":"440110","PosyNode":"4474966","Name":"GRAN VIA-SAN BERNARDO","Lines":"1/2 2/1 44/1 46/1 74/2 75/1 133/1 147/1 148/1 516/1 518/1 519/1 520/1 521/1","Loc":{"Latitude":40.42317059126717,"Longitude":-3.7059936472444313}},{"Node":"169","PosxNode":"440094","PosyNode":"4474939","Name":"GRAN VIA-SAN BERNARDO","Lines":"1/1 2/2 46/2 74/1 146/1 518/2 519/2 520/2 521/2","Loc":{"Latitude":40.42292621110377,"Longitude":-3.7061797007857615}},{"Node":"170","PosxNode":"439905","PosyNode":"4475146","Name":"GRAN VIA-PZA.ESPAÑA","Lines":"1/2 2/1 3/2 44/1 46/1 74/2 75/1 133/1 148/1 516/1 518/1 519/1 520/1 521/1","Loc":{"Latitude":40.42477733124831,"Longitude":-3.7084270595242157}},{"Node":"171","PosxNode":"439836","PosyNode":"4475153","Name":"GRAN VIA-PZA.ESPAÑA","Lines":"1/1 2/2 46/2 74/1 518/2 519/2 520/2 521/2","Loc":{"Latitude":40.42483540361672,"Longitude":-3.709241066038031}},{"Node":"172","PosxNode":"439657","PosyNode":"4475481","Name":"PRINCESA-VENTURA RODRIGUEZ","Lines":"1/2 2/1 44/1 68/2 133/1 521/1","Loc":{"Latitude":40.427777209013264,"Longitude":-3.711382177710349}},{"Node":"173","PosxNode":"439617","PosyNode":"4475489","Name":"PRINCESA-VENTURA RODRIGUEZ","Lines":"1/1 2/2 44/2 69/1 74/1 133/2 521/2","Loc":{"Latitude":40.42784637410728,"Longitude":-3.7118544620902654}},{"Node":"174","PosxNode":"441931,1","PosyNode":"4474856","Name":"ALCALA-LAGASCA","Lines":"2/2 20/1 28/1","Loc":{"Latitude":40.422308746826346,"Longitude":-3.6845176373096957}},{"Node":"175","PosxNode":"439580","PosyNode":"4475683","Name":"MARTIRES DE ALCALA-PRINCESA","Lines":"2/1","Loc":{"Latitude":40.429591324204864,"Longitude":-3.712309061191451}},{"Node":"176","PosxNode":"439740","PosyNode":"4475985","Name":"BLASCO DE GARAY-ALBERTO AGUILERA","Lines":"2/1","Loc":{"Latitude":40.432323477820724,"Longitude":-3.7104515425495377}},{"Node":"177","PosxNode":"439765","PosyNode":"4476370","Name":"BLASCO DE GARAY Nº 40","Lines":"2/1","Loc":{"Latitude":40.43579353481668,"Longitude":-3.7101933093940667}},{"Node":"180","PosxNode":"440062,1","PosyNode":"4477090","Name":"VALLEHERMOSO Nº 112","Lines":"2/1","Loc":{"Latitude":40.44230106974103,"Longitude":-3.706758562778906}},{"Node":"181","PosxNode":"439899,2","PosyNode":"4477321","Name":"JUAN VIGON Nº 23","Lines":"2/1","Loc":{"Latitude":40.44437025599094,"Longitude":-3.708701116285264}},{"Node":"182","PosxNode":"439694","PosyNode":"4477195","Name":"JUAN VIGON-GUZMAN EL BUENO","Lines":"2/1","Loc":{"Latitude":40.44322033709952,"Longitude":-3.7111086705489846}},{"Node":"183","PosxNode":"439470,4","PosyNode":"4477307","Name":"GRAL.AMPUDIA Nº 8","Lines":"2/1","Loc":{"Latitude":40.4442130309554,"Longitude":-3.7137557672850456}},{"Node":"184","PosxNode":"439467,3","PosyNode":"4477442","Name":"GRAL.AMPUDIA Nº 18","Lines":"2/1","Loc":{"Latitude":40.44542894030047,"Longitude":-3.7138051845482565}},{"Node":"185","PosxNode":"439543,2","PosyNode":"4477687","Name":"AV.REINA VICTORIA-GRAL.RODRIGO","Lines":"2/1 68/2 91/2","Loc":{"Latitude":40.4476415227173,"Longitude":-3.7129335537652772}},{"Node":"186","PosxNode":"439695,7","PosyNode":"4477692","Name":"GUZMAN EL BUENO Nº 139","Lines":"2/1 2/2","Loc":{"Latitude":40.44769764114531,"Longitude":-3.7111358120830906}},{"Node":"187","PosxNode":"439672,6","PosyNode":"4477365","Name":"GUZMAN EL BUENO-SAN FRANCISCO DE SALES","Lines":"2/2","Loc":{"Latitude":40.44475021499869,"Longitude":-3.7113771389574284}},{"Node":"188","PosxNode":"439657","PosyNode":"4477218","Name":"GUZMAN EL BUENO-JUAN VIGON","Lines":"2/2 12/1","Loc":{"Latitude":40.44342484615858,"Longitude":-3.7115471153867285}},{"Node":"189","PosxNode":"439638","PosyNode":"4476904","Name":"GUZMAN EL BUENO-CEA BERMUDEZ","Lines":"2/2","Loc":{"Latitude":40.440594824342014,"Longitude":-3.7117413064775424}},{"Node":"190","PosxNode":"439617,3","PosyNode":"4476582","Name":"GUZMAN EL BUENO-FERNANDEZ DE LOS RIOS","Lines":"2/2","Loc":{"Latitude":40.437692610145284,"Longitude":-3.7119547655380525}},{"Node":"191","PosxNode":"439599,1","PosyNode":"4476327","Name":"GUZMAN EL BUENO-MELENDEZ VALDES","Lines":"2/2","Loc":{"Latitude":40.43539414037549,"Longitude":-3.7121451026715273}},{"Node":"192","PosxNode":"439580","PosyNode":"4476044","Name":"GUZMAN EL BUENO-ALBERTO AGUILERA","Lines":"2/2","Loc":{"Latitude":40.43284336810142,"Longitude":-3.7123433763202023}},{"Node":"193","PosxNode":"439500","PosyNode":"4475704","Name":"PRINCESA Nº 29","Lines":"1/1 2/2 44/2 69/1 133/2","Loc":{"Latitude":40.42977468676681,"Longitude":-3.7132541339902905}},{"Node":"194","PosxNode":"442491,1","PosyNode":"4474778","Name":"AV.MENENDEZ PELAYO-MENORCA","Lines":"20/2 152/2 508/2","Loc":{"Latitude":40.42164497651751,"Longitude":-3.677909729892718}},{"Node":"195","PosxNode":"442475,2","PosyNode":"4474758","Name":"AV.MENENDEZ PELAYO-MENORCA","Lines":"20/1 152/1 508/1","Loc":{"Latitude":40.42146370719288,"Longitude":-3.678095336065201}},{"Node":"196","PosxNode":"442651,9","PosyNode":"4474456","Name":"SAINZ DE BARANDA Nº 10","Lines":"508/1","Loc":{"Latitude":40.41875533170644,"Longitude":-3.6759853234637556}},{"Node":"197","PosxNode":"442717","PosyNode":"4474627","Name":"IBIZA-NARVAEZ","Lines":"508/2","Loc":{"Latitude":40.42030027257155,"Longitude":-3.675233415540768}},{"Node":"199","PosxNode":"443035","PosyNode":"4474606","Name":"IBIZA-MAIQUEZ","Lines":"2/1 508/2","Loc":{"Latitude":40.42013292388855,"Longitude":-3.671483298572582}},{"Node":"203","PosxNode":"442026,9","PosyNode":"4480009","Name":"MATEO INURRIA-ENRIQUE LARRETA","Lines":"70/1 107/1 129/1","Loc":{"Latitude":40.468736045123435,"Longitude":-3.6838587445303195}},{"Node":"204","PosxNode":"441988,2","PosyNode":"4480012","Name":"MATEO INURRIA-ENRIQUE LARRETA","Lines":"70/2 107/2 129/2 174/2","Loc":{"Latitude":40.46876036871005,"Longitude":-3.6843154985369773}},{"Node":"205","PosxNode":"442331,7","PosyNode":"4480065","Name":"MATEO INURRIA-AV.RECUERDO","Lines":"70/1 107/1 129/1","Loc":{"Latitude":40.46926173289173,"Longitude":-3.6802686128321294}},{"Node":"206","PosxNode":"442364","PosyNode":"4480086","Name":"MATEO INURRIA-AV.RECUERDO","Lines":"70/2 107/2 129/2 174/2","Loc":{"Latitude":40.46945315172562,"Longitude":-3.6798895278621098}},{"Node":"207","PosxNode":"442495,1","PosyNode":"4480081","Name":"MATEO INURRIA-Pº HABANA","Lines":"70/1 107/1 129/1","Loc":{"Latitude":40.46941719542659,"Longitude":-3.678342687282611}},{"Node":"208","PosxNode":"442865,4","PosyNode":"4480056","Name":"CAIDOS DIVISION AZUL-AV.PIO XII","Lines":"70/1 107/1","Loc":{"Latitude":40.46921753616058,"Longitude":-3.6739725688672022}},{"Node":"209","PosxNode":"442872","PosyNode":"4480068","Name":"CAIDOS DIVISION AZUL-AV.PIO XII","Lines":"70/2 107/2","Loc":{"Latitude":40.46932609142827,"Longitude":-3.6738957994778927}},{"Node":"210","PosxNode":"443078","PosyNode":"4479957","Name":"CAIDOS DIVISION AZUL-CTE.FRANCO","Lines":"29/1 70/1 107/1 501/1","Loc":{"Latitude":40.46834029490069,"Longitude":-3.671455972836944}},{"Node":"211","PosxNode":"443076","PosyNode":"4479991","Name":"CAIDOS DIVISION AZUL-CTE.FRANCO","Lines":"29/2 70/2 107/2 501/2","Loc":{"Latitude":40.4686464451992,"Longitude":-3.6714826140388888}},{"Node":"212","PosxNode":"443637","PosyNode":"4479954","Name":"ARTURO SORIA-AÑASTRO","Lines":"7/2 70/1","Loc":{"Latitude":40.46835138511597,"Longitude":-3.6648621258357768}},{"Node":"213","PosxNode":"443666,8","PosyNode":"4479958","Name":"ARTURO SORIA-AÑASTRO","Lines":"70/2","Loc":{"Latitude":40.468389440335486,"Longitude":-3.664510980435509}},{"Node":"214","PosxNode":"443652","PosyNode":"4480068","Name":"ARTURO SORIA-AÑASTRO","Lines":"7/1 29/1 107/1 501/1","Loc":{"Latitude":40.46937936751876,"Longitude":-3.664695321191047}},{"Node":"215","PosxNode":"443725","PosyNode":"4479563","Name":"ARTURO SORIA-MANUEL URIBE","Lines":"7/2 70/1","Loc":{"Latitude":40.46483504002724,"Longitude":-3.663789458869545}},{"Node":"216","PosxNode":"443728","PosyNode":"4479686","Name":"ARTURO SORIA-MANUEL URIBE","Lines":"7/1 70/2","Loc":{"Latitude":40.46594328507705,"Longitude":-3.663764982632728}},{"Node":"217","PosxNode":"443963","PosyNode":"4479346","Name":"ARTURO SORIA Nº 212","Lines":"7/1 11/2 70/2","Loc":{"Latitude":40.46289628709779,"Longitude":-3.660963155080683}},{"Node":"218","PosxNode":"444093","PosyNode":"4479173","Name":"ARTURO SORIA-LOPEZ DE HOYOS","Lines":"9/2 11/1 70/1 72/2 73/2 502/2 503/2","Loc":{"Latitude":40.46134657697456,"Longitude":-3.6594146459396084}},{"Node":"219","PosxNode":"444198","PosyNode":"4479133","Name":"ARTURO SORIA-LOPEZ DE HOYOS","Lines":"11/2 70/2","Loc":{"Latitude":40.46099329561871,"Longitude":-3.658172747451608}},{"Node":"220","PosxNode":"444357","PosyNode":"4478866","Name":"ARTURO SORIA-CELESTE","Lines":"11/1 70/1 503/2","Loc":{"Latitude":40.45859869071598,"Longitude":-3.656274086222984}},{"Node":"221","PosxNode":"444367,1","PosyNode":"4478903","Name":"ARTURO SORIA-BELISANA","Lines":"11/2 70/2 503/1","Loc":{"Latitude":40.45893268123941,"Longitude":-3.6561582134001394}},{"Node":"222","PosxNode":"444531,6","PosyNode":"4478612","Name":"ARTURO SORIA-JEFATURA PROV.TRAFICO","Lines":"11/1 70/1 122/2 503/2","Loc":{"Latitude":40.45632220445356,"Longitude":-3.654192722179567}},{"Node":"223","PosxNode":"444540,9","PosyNode":"4478638","Name":"ARTURO SORIA Nº 164-LUIS CARLOS VAZQUEZ","Lines":"11/2 70/2 122/1 503/1","Loc":{"Latitude":40.45655704616761,"Longitude":-3.6540853164343226}},{"Node":"224","PosxNode":"444718,1","PosyNode":"4478327","Name":"ARTURO SORIA-MANUEL Mª IGLESIAS","Lines":"11/1 70/1 122/2 503/2","Loc":{"Latitude":40.45376720652895,"Longitude":-3.651968465040551}},{"Node":"225","PosxNode":"444806,3","PosyNode":"4478215","Name":"ARTURO SORIA-DIEGO AYLLON","Lines":"11/2 70/2 122/1 503/1","Loc":{"Latitude":40.45276411493807,"Longitude":-3.650918603735068}},{"Node":"226","PosxNode":"444854","PosyNode":"4478083","Name":"ARTURO SORIA-HOSPITAL NTRA.SRA.AMERICA","Lines":"11/1 70/1 503/2","Loc":{"Latitude":40.451578157077876,"Longitude":-3.650344631151517}},{"Node":"227","PosxNode":"444937","PosyNode":"4478018","Name":"ARTURO SORIA-HOSPITAL NTRA.SRA.AMERICA","Lines":"11/2 70/2 503/1","Loc":{"Latitude":40.450998105863555,"Longitude":-3.649360223516582}},{"Node":"228","PosxNode":"445069,2","PosyNode":"4477752","Name":"ARTURO SORIA-CONDESA DE VENADITO","Lines":"70/1","Loc":{"Latitude":40.448610585513684,"Longitude":-3.6477782689052733}},{"Node":"229","PosxNode":"445077","PosyNode":"4477788","Name":"ARTURO SORIA-JOSEFA VALCARCEL","Lines":"21/1 70/2 114/2 504/2","Loc":{"Latitude":40.44893540780472,"Longitude":-3.647689405442293}},{"Node":"230","PosxNode":"445350,4","PosyNode":"4477530","Name":"ARTURO SORIA-JUAN PEREZ ZUÑIGA","Lines":"70/1","Loc":{"Latitude":40.44662922510971,"Longitude":-3.64444327977101}},{"Node":"231","PosxNode":"445357","PosyNode":"4477567","Name":"ARTURO SORIA-JUAN PEREZ ZUÑIGA","Lines":"21/1 70/2","Loc":{"Latitude":40.44696297471155,"Longitude":-3.6443686386894836}},{"Node":"232","PosxNode":"445499,8","PosyNode":"4477444","Name":"ARTURO SORIA-MARQUES PICO VELASCO","Lines":"70/1","Loc":{"Latitude":40.44586429840501,"Longitude":-3.6426742392736116}},{"Node":"233","PosxNode":"445507","PosyNode":"4477469","Name":"ARTURO SORIA-MARQUES PICO VELASCO","Lines":"70/2","Loc":{"Latitude":40.44608998383624,"Longitude":-3.642591485774166}},{"Node":"234","PosxNode":"445724,9","PosyNode":"4477222","Name":"ARTURO SORIA-JOSE DEL HIERRO","Lines":"70/1","Loc":{"Latitude":40.44387912733442,"Longitude":-3.640001015673324}},{"Node":"235","PosxNode":"445807,5","PosyNode":"4477132","Name":"ARTURO SORIA-JOSE DEL HIERRO","Lines":"70/2","Loc":{"Latitude":40.443073745916855,"Longitude":-3.639019392662051}},{"Node":"236","PosxNode":"445931","PosyNode":"4476835","Name":"ARTURO SORIA-MARQUESA DE TORRECILLA","Lines":"48/1 70/1","Loc":{"Latitude":40.440406245668726,"Longitude":-3.637537931104864}},{"Node":"237","PosxNode":"445969","PosyNode":"4476855","Name":"ARTURO SORIA-MARQUESA DE TORRECILLA","Lines":"48/2 70/2","Loc":{"Latitude":40.44058888683999,"Longitude":-3.63709159300222}},{"Node":"239","PosxNode":"446049","PosyNode":"4476707","Name":"HNOS.GARCIA NOBLEJAS-ALCALA","Lines":"4/2 38/2 48/2 70/2 105/2","Loc":{"Latitude":40.43926081445726,"Longitude":-3.6361357827626253}},{"Node":"240","PosxNode":"446159","PosyNode":"4476427","Name":"HNOS.GARCIA NOBLEJAS-VITAL AZA","Lines":"4/1 38/1 48/1 70/1 105/1","Loc":{"Latitude":40.43674554574499,"Longitude":-3.6348151235879342}},{"Node":"241","PosxNode":"446188","PosyNode":"4476445","Name":"HNOS.GARCIA NOBLEJAS-VITAL AZA","Lines":"4/2 38/2 48/2 70/2 105/2","Loc":{"Latitude":40.43690957694469,"Longitude":-3.6344747417784142}},{"Node":"242","PosxNode":"446295","PosyNode":"4476166","Name":"HNOS.GARCIA NOBLEJAS-ASCAO","Lines":"4/1 38/1 48/1 70/1","Loc":{"Latitude":40.43440310228062,"Longitude":-3.6331896442850002}},{"Node":"243","PosxNode":"446352","PosyNode":"4476160","Name":"HNOS.GARCIA NOBLEJAS-JULIAN CAMARILLO","Lines":"4/2 38/2 48/2 70/2","Loc":{"Latitude":40.43435272950439,"Longitude":-3.63251713849155}},{"Node":"244","PosxNode":"446491","PosyNode":"4475817","Name":"HNOS.GARCIA NOBLEJAS-LUIS CAMPOS","Lines":"4/1 38/1 48/1 70/1 506/1","Loc":{"Latitude":40.43127174102571,"Longitude":-3.6308495268721135}},{"Node":"245","PosxNode":"446535","PosyNode":"4475821","Name":"HNOS.GARCIA NOBLEJAS-VALDECANILLAS","Lines":"4/2 38/2 48/2 70/2 506/2","Loc":{"Latitude":40.431310604697984,"Longitude":-3.6303311508675282}},{"Node":"246","PosxNode":"446595","PosyNode":"4475626","Name":"HNOS.GARCIA NOBLEJAS-CASTILLO DE AREVALO","Lines":"4/1 38/1 48/1 70/1","Loc":{"Latitude":40.429557784929756,"Longitude":-3.6296074319442275}},{"Node":"247","PosxNode":"446608","PosyNode":"4475664","Name":"HNOS.GARCIA NOBLEJAS-CASTILLO DE AREVALO","Lines":"4/2 38/2 48/2 70/2","Loc":{"Latitude":40.42990094574711,"Longitude":-3.62945737159418}},{"Node":"248","PosxNode":"446709","PosyNode":"4475481","Name":"HNOS.GARCIA NOBLEJAS-CASTILLO UCLES","Lines":"4/2 38/2 48/2 70/2 506/2","Loc":{"Latitude":40.42825885038872,"Longitude":-3.6282513732692303}},{"Node":"250","PosxNode":"446833","PosyNode":"4475180","Name":"HNOS.GARCIA NOBLEJAS-FCO.L.CABALLERO","Lines":"4/1 38/1 48/1 70/1 506/1","Loc":{"Latitude":40.42555519725046,"Longitude":-3.626764439678949}},{"Node":"251","PosxNode":"446778,8","PosyNode":"4475357","Name":"HNOS.GARCIA NOBLEJAS-JOSE BLAS","Lines":"70/2","Loc":{"Latitude":40.42714625327522,"Longitude":-3.6274181621631088}},{"Node":"252","PosxNode":"446875","PosyNode":"4475204","Name":"HNOS.GARCIA NOBLEJAS-AV.ARCENTALES","Lines":"4/2 38/2 48/2 506/2","Loc":{"Latitude":40.4257740866023,"Longitude":-3.6262713519378913}},{"Node":"253","PosxNode":"447024,1","PosyNode":"4474836","Name":"HNOS.GARCIA NOBLEJAS Nº 184","Lines":"70/1","Loc":{"Latitude":40.42246842770373,"Longitude":-3.6244831052761497}},{"Node":"255","PosxNode":"442897","PosyNode":"4475314","Name":"GOYA-FERNAN GONZALEZ","Lines":"30/1","Loc":{"Latitude":40.42650149666843,"Longitude":-3.6731734673037333}},{"Node":"256","PosxNode":"446826","PosyNode":"4474610","Name":"NICOLAS SALMERON-PAREDES DE NAVA","Lines":"70/2 106/2 507/2","Loc":{"Latitude":40.4204198466401,"Longitude":-3.6267992906143904}},{"Node":"257","PosxNode":"446814,4","PosyNode":"4474588","Name":"NICOLAS SALMERON-PAREDES DE NAVA","Lines":"106/1 507/1","Loc":{"Latitude":40.42022091595451,"Longitude":-3.626934180359422}},{"Node":"258","PosxNode":"446663","PosyNode":"4474724","Name":"NICOLAS SALMERON-MATAMOROSA","Lines":"70/2 106/2","Loc":{"Latitude":40.421436395206825,"Longitude":-3.6287301377145083}},{"Node":"259","PosxNode":"446654,7","PosyNode":"4474704","Name":"NICOLAS SALMERON-MATAMOROSA","Lines":"106/1","Loc":{"Latitude":40.421255691103966,"Longitude":-3.6288262938367133}},{"Node":"260","PosxNode":"446480","PosyNode":"4474850","Name":"NICOLAS SALMERON Nº 13","Lines":"70/2 106/2 507/2","Loc":{"Latitude":40.42255972784205,"Longitude":-3.630897800281499}},{"Node":"261","PosxNode":"446475,5","PosyNode":"4474835","Name":"NICOLAS SALMERON Nº 13","Lines":"106/1 507/1","Loc":{"Latitude":40.42242430943846,"Longitude":-3.630949581003547}},{"Node":"262","PosxNode":"446299","PosyNode":"4474985","Name":"NICOLAS SALMERON-CEMENTERIO CIVIL","Lines":"70/2 106/2","Loc":{"Latitude":40.423764225471785,"Longitude":-3.6330427195918436}},{"Node":"263","PosxNode":"446305,2","PosyNode":"4474958","Name":"NICOLAS SALMERON-CEMENTERIO CIVIL","Lines":"106/1","Loc":{"Latitude":40.42352139367419,"Longitude":-3.6329673564693015}},{"Node":"264","PosxNode":"446220","PosyNode":"4475110","Name":"FCO.LARGO CABALLERO-N.SALMERON","Lines":"70/2","Loc":{"Latitude":40.424885196252625,"Longitude":-3.6339845126982038}},{"Node":"265","PosxNode":"446435","PosyNode":"4475123","Name":"FCO.LARGO CABALLERO-FRESNO","Lines":"70/2","Loc":{"Latitude":40.4250161779559,"Longitude":-3.6314512307390547}},{"Node":"266","PosxNode":"442645","PosyNode":"4480132","Name":"CAIDOS DIVISION AZUL-DUQUE DE PASTRANA","Lines":"70/2 107/2","Loc":{"Latitude":40.46988698932381,"Longitude":-3.6765791560328}},{"Node":"278","PosxNode":"440839","PosyNode":"4475208","Name":"HORTALEZA-GRAVINA","Lines":"3/1","Loc":{"Latitude":40.425402795566164,"Longitude":-3.697423193443972}},{"Node":"280","PosxNode":"440786","PosyNode":"4475794","Name":"FCO.DE ROJAS-SAGASTA","Lines":"37/2 40/1","Loc":{"Latitude":40.43067798524438,"Longitude":-3.6981025255401114}},{"Node":"281","PosxNode":"440766","PosyNode":"4475780","Name":"FCO.DE ROJAS-SAGASTA","Lines":"37/1 40/2","Loc":{"Latitude":40.43055044283638,"Longitude":-3.6983369939964206}},{"Node":"282","PosxNode":"440729","PosyNode":"4475947","Name":"FCO.DE ROJAS-LUCHANA","Lines":"40/2","Loc":{"Latitude":40.432052219724476,"Longitude":-3.698788745842946}},{"Node":"284","PosxNode":"440893","PosyNode":"4476152","Name":"LUCHANA-PZA.DE CHAMBERÍ","Lines":"40/1 147/1","Loc":{"Latitude":40.4339106240401,"Longitude":-3.696874431588704}},{"Node":"285","PosxNode":"440848","PosyNode":"4476143","Name":"LUCHANA-PZA.DE CHAMBERI","Lines":"40/2 147/2","Loc":{"Latitude":40.43382634874901,"Longitude":-3.697404108869557}},{"Node":"286","PosxNode":"441218","PosyNode":"4476223","Name":"EDUARDO DATO-ZURBANO","Lines":"40/1 147/1","Loc":{"Latitude":40.43457325793366,"Longitude":-3.6930494992749066}},{"Node":"287","PosxNode":"441205","PosyNode":"4476253","Name":"EDUARDO DATO-ZURBANO","Lines":"40/2 147/2","Loc":{"Latitude":40.434842592934466,"Longitude":-3.6932055362508978}},{"Node":"288","PosxNode":"441402","PosyNode":"4476233","Name":"EDUARDO DATO-RUBEN DARIO","Lines":"40/1 147/1","Loc":{"Latitude":40.43467632679148,"Longitude":-3.6908811807453574}},{"Node":"289","PosxNode":"439442,4","PosyNode":"4475985","Name":"ALBERTO AGUILERA-PRINCESA","Lines":"602/1 602/2","Loc":{"Latitude":40.43230186405762,"Longitude":-3.713959920354505}},{"Node":"292","PosxNode":"439623,6","PosyNode":"4468921","Name":"AV.RAFAELA YBARRA-BEASAIN","Lines":"6/1 131/1","Loc":{"Latitude":40.36867912341804,"Longitude":-3.7111538137523077}},{"Node":"293","PosxNode":"442017","PosyNode":"4479090","Name":"ALBERTO ALCOCER-PADRE DAMIAN","Lines":"11/1 40/1","Loc":{"Latitude":40.460456603146,"Longitude":-3.683891545074267}},{"Node":"294","PosxNode":"442021","PosyNode":"4479133","Name":"ALBERTO ALCOCER-PADRE DAMIAN","Lines":"11/2 40/2","Loc":{"Latitude":40.460844245196945,"Longitude":-3.683848297564178}},{"Node":"295","PosxNode":"442257","PosyNode":"4479074","Name":"ALBERTO ALCOCER-Pº DE LA HABANA","Lines":"11/1 40/1","Loc":{"Latitude":40.46032918044951,"Longitude":-3.681059553850144}},{"Node":"296","PosxNode":"442255","PosyNode":"4479108","Name":"ALBERTO ALCOCER-Pº DE LA HABANA","Lines":"11/2 40/2","Loc":{"Latitude":40.46063532862909,"Longitude":-3.68108623495611}},{"Node":"297","PosxNode":"442602","PosyNode":"4479081","Name":"ALBERTO ALCOCER-BOLIVIA","Lines":"11/1 40/1","Loc":{"Latitude":40.46041614222042,"Longitude":-3.676991296533386}},{"Node":"298","PosxNode":"442597","PosyNode":"4479119","Name":"ALBERTO ALCOCER-BOLIVIA","Lines":"11/2 40/2","Loc":{"Latitude":40.460758118054684,"Longitude":-3.677053702865394}},{"Node":"299","PosxNode":"442841","PosyNode":"4479055","Name":"COSTA RICA-CHILE","Lines":"7/1 11/1 40/1","Loc":{"Latitude":40.460198396959186,"Longitude":-3.6741702110331174}},{"Node":"300","PosxNode":"443109","PosyNode":"4479048","Name":"COSTA RICA-VICTOR DE LA SERNA","Lines":"7/1 11/1 40/1 87/1","Loc":{"Latitude":40.4601537295024,"Longitude":-3.6710088244543435}},{"Node":"302","PosxNode":"443383","PosyNode":"4479096","Name":"COSTA RICA-PZA.JOSE MARIA SOLER","Lines":"7/1 11/1 40/1 87/1","Loc":{"Latitude":40.460604850271864,"Longitude":-3.6677815838256467}},{"Node":"303","PosxNode":"443363","PosyNode":"4479125","Name":"COSTA RICA-PZA.JOSE MARIA SOLER","Lines":"7/2 11/2 40/2 87/2","Loc":{"Latitude":40.46086473293403,"Longitude":-3.6680200508418404}},{"Node":"304","PosxNode":"443531","PosyNode":"4478908","Name":"AV.ALFONSO XIII-AV.ASTER","Lines":"40/1","Loc":{"Latitude":40.458921327939755,"Longitude":-3.6660193516636115}},{"Node":"305","PosxNode":"443559,6","PosyNode":"4478959","Name":"AV.ALFONSO XIII-AV.ASTER","Lines":"40/2","Loc":{"Latitude":40.45938270323618,"Longitude":-3.665686587632964}},{"Node":"306","PosxNode":"443549","PosyNode":"4478697","Name":"AV.ALFONSO XIII-AV.ALHELIES","Lines":"40/1","Loc":{"Latitude":40.457021762014826,"Longitude":-3.665788301181845}},{"Node":"307","PosxNode":"443575","PosyNode":"4478701","Name":"AV.ALFONSO XIII-AV.ALHELIES","Lines":"40/2","Loc":{"Latitude":40.45705956165139,"Longitude":-3.6654820299578783}},{"Node":"308","PosxNode":"443514","PosyNode":"4478475","Name":"AV.ALFONSO XIII-AV.RAMON Y CAJAL","Lines":"40/1","Loc":{"Latitude":40.45501950112625,"Longitude":-3.666181314947645}},{"Node":"309","PosxNode":"443536","PosyNode":"4478472","Name":"AV.ALFONSO XIII-AV.RAMON Y CAJAL","Lines":"40/2","Loc":{"Latitude":40.454993970619775,"Longitude":-3.66592160243815}},{"Node":"310","PosxNode":"443495,8","PosyNode":"4478262","Name":"AV.ALFONSO XIII-PRADILLO","Lines":"9/2 40/1 43/2 72/2 73/2 502/2","Loc":{"Latitude":40.45309945703075,"Longitude":-3.6663769908400403}},{"Node":"311","PosxNode":"443523","PosyNode":"4478230","Name":"AV.ALFONSO XIII-PRADILLO","Lines":"40/2 43/1","Loc":{"Latitude":40.45281303416937,"Longitude":-3.666053384369761}},{"Node":"312","PosxNode":"443506","PosyNode":"4477922","Name":"SAN NAZARIO Nº 1","Lines":"40/1 40/2","Loc":{"Latitude":40.45003726467175,"Longitude":-3.6662264559434385}},{"Node":"313","PosxNode":"443638,1","PosyNode":"4477955","Name":"CORAZON DE MARIA-SAN NAZARIO","Lines":"40/2 43/1 72/1","Loc":{"Latitude":40.45034351231919,"Longitude":-3.6646716462008317}},{"Node":"314","PosxNode":"442796","PosyNode":"4479104","Name":"COSTA RICA-PZA.REP.DOMINICANA","Lines":"7/2 11/2 40/2 87/2","Loc":{"Latitude":40.46063671475077,"Longitude":-3.6747053515138974}},{"Node":"315","PosxNode":"439465","PosyNode":"4468809","Name":"GAINZA-AV.RAFAELA YBARRA","Lines":"6/1","Loc":{"Latitude":40.367658666341654,"Longitude":-3.7130111413405875}},{"Node":"316","PosxNode":"441460","PosyNode":"4476293","Name":"MIGUEL ANGEL-RUBEN DARIO","Lines":"40/2 147/2","Loc":{"Latitude":40.43522091932824,"Longitude":-3.6902029241101477}},{"Node":"317","PosxNode":"440978","PosyNode":"4476214","Name":"PZA.DE CHAMBERI","Lines":"40/2 147/2","Loc":{"Latitude":40.43447518475786,"Longitude":-3.6958781055405585}},{"Node":"320","PosxNode":"440573,4","PosyNode":"4473200","Name":"RONDA DE VALENCIA","Lines":"34/1 36/1 41/1 68/1 119/1 512/1 515/1","Loc":{"Latitude":40.40729484234879,"Longitude":-3.7003664203507265}},{"Node":"321","PosxNode":"440590","PosyNode":"4473176","Name":"RONDA DE VALENCIA","Lines":"34/2 36/2 41/2 119/2 512/2 515/2","Loc":{"Latitude":40.407079823314426,"Longitude":-3.7001685560123567}},{"Node":"322","PosxNode":"440349,7","PosyNode":"4473118","Name":"Pº ACACIAS-GTA.EMBAJADORES","Lines":"34/1 36/1 119/1 512/1 515/1","Loc":{"Latitude":40.406540147829894,"Longitude":-3.7029949412169714}},{"Node":"323","PosxNode":"440382","PosyNode":"4473103","Name":"Pº ACACIAS-GTA.EMBAJADORES","Lines":"34/2 36/2 119/2 512/2 515/2","Loc":{"Latitude":40.406407334161685,"Longitude":-3.7026128989497336}},{"Node":"324","PosxNode":"440108","PosyNode":"4473035","Name":"Pº ACACIAS-RIBERA DE CURTIDORES","Lines":"34/1 36/1 62/2 116/1 118/1 119/1","Loc":{"Latitude":40.405775090767534,"Longitude":-3.705835425752304}},{"Node":"325","PosxNode":"440119,3","PosyNode":"4473014","Name":"Pº ACACIAS-Pº ESPERANZA","Lines":"34/2 36/2 62/1 116/2 118/2 119/2","Loc":{"Latitude":40.40558672541782,"Longitude":-3.7057002874591003}},{"Node":"326","PosxNode":"439858","PosyNode":"4472948","Name":"Pº ACACIAS-Pº OLMOS","Lines":"34/1 36/1 62/2 116/1 118/1 119/1 512/1 515/1","Loc":{"Latitude":40.40497333092245,"Longitude":-3.7087732755275513}},{"Node":"327","PosxNode":"439579,9","PosyNode":"4472750","Name":"Pº ACACIAS-GTA.PIRAMIDES","Lines":"34/1 36/1 62/2 116/1 118/1 119/1 512/1 515/1","Loc":{"Latitude":40.40316951742725,"Longitude":-3.7120316482045292}},{"Node":"328","PosxNode":"439585,3","PosyNode":"4472728","Name":"Pº ACACIAS-GTA.PIRAMIDES","Lines":"34/2 36/2 62/1 116/2 118/2 119/2 512/2 515/2","Loc":{"Latitude":40.40297172278305,"Longitude":-3.711965927485902}},{"Node":"329","PosxNode":"439239","PosyNode":"4472290","Name":"GRAL.RICARDOS-GTA.MQUES.VADILLO","Lines":"34/1 35/1 118/1 119/1 526/1","Loc":{"Latitude":40.39900081287526,"Longitude":-3.716004843499246}},{"Node":"330","PosxNode":"439292","PosyNode":"4472293","Name":"GRAL.RICARDOS-GTA.MQUES.VADILLO","Lines":"34/2 35/2 118/2 119/2 526/2","Loc":{"Latitude":40.39903170375576,"Longitude":-3.715380626169007}},{"Node":"331","PosxNode":"439088","PosyNode":"4472150","Name":"GRAL.RICARDOS-IGLESIA","Lines":"34/2 35/2 118/2 119/2 526/2","Loc":{"Latitude":40.397728595344965,"Longitude":-3.717770694260962}},{"Node":"332","PosxNode":"439369","PosyNode":"4468886","Name":"GUETARIA-ORDICIA","Lines":"6/1","Loc":{"Latitude":40.36834534650492,"Longitude":-3.714149115217284}},{"Node":"334","PosxNode":"438743,5","PosyNode":"4471910","Name":"GRAL.RICARDOS-Cº VIEJO LEGANES","Lines":"34/2 35/2 118/2 119/2 526/2","Loc":{"Latitude":40.395541294242285,"Longitude":-3.7218067962404655}},{"Node":"336","PosxNode":"438547","PosyNode":"4471774","Name":"GRAL.RICARDOS-URGEL","Lines":"34/2 35/2 119/2 526/2","Loc":{"Latitude":40.39430166703088,"Longitude":-3.7241089248215022}},{"Node":"337","PosxNode":"438244","PosyNode":"4471565","Name":"GRAL.RICARDOS-CLARISAS","Lines":"34/1 35/1 118/1 526/1","Loc":{"Latitude":40.3923964872095,"Longitude":-3.7276586746248563}},{"Node":"338","PosxNode":"438251","PosyNode":"4471536","Name":"GRAL.RICARDOS-CLARISAS","Lines":"34/2 35/2 526/2","Loc":{"Latitude":40.392135760763864,"Longitude":-3.7275733895663157}},{"Node":"340","PosxNode":"438049","PosyNode":"4471370","Name":"GRAL.RICARDOS-GTA.VALLE DE ORO","Lines":"34/2 35/2 526/2","Loc":{"Latitude":40.390625357114686,"Longitude":-3.729937176605946}},{"Node":"341","PosxNode":"437524,6","PosyNode":"4470986","Name":"GRAL.RICARDOS-VISTA ALEGRE","Lines":"34/1 35/1 517/1","Loc":{"Latitude":40.387126946387745,"Longitude":-3.736077771056915}},{"Node":"342","PosxNode":"437529","PosyNode":"4470965","Name":"GRAL.RICARDOS-VISTA ALEGRE","Lines":"34/2 35/2 517/2","Loc":{"Latitude":40.38693809881411,"Longitude":-3.736023875468729}},{"Node":"343","PosxNode":"437367,6","PosyNode":"4470935","Name":"GRAL.RICARDOS-Pº MUÑOZ GRANDES","Lines":"34/1 35/1 517/1","Loc":{"Latitude":40.38665572686946,"Longitude":-3.7379223670215485}},{"Node":"344","PosxNode":"437329","PosyNode":"4470900","Name":"GRAL.RICARDOS-Pº MUÑOZ GRANDES","Lines":"34/2","Loc":{"Latitude":40.386337528308985,"Longitude":-3.7383736655149518}},{"Node":"345","PosxNode":"437061","PosyNode":"4470700","Name":"GRAL.RICARDOS-NTRA.SRA.DE LA LUZ","Lines":"34/1","Loc":{"Latitude":40.38451563593484,"Longitude":-3.7415111643712553}},{"Node":"346","PosxNode":"437083,3","PosyNode":"4470691","Name":"GRAL.RICARDOS-NTRA.SRA.DE LA LUZ","Lines":"34/2","Loc":{"Latitude":40.38443624419281,"Longitude":-3.741247570654057}},{"Node":"347","PosxNode":"436866","PosyNode":"4470508","Name":"GRAL.RICARDOS-EUGENIA  DE MONTIJO","Lines":"34/1","Loc":{"Latitude":40.38277126139651,"Longitude":-3.743789334130022}},{"Node":"348","PosxNode":"436876,5","PosyNode":"4470487","Name":"GRAL.RICARDOS-EUGENIA  DE MONTIJO","Lines":"34/2","Loc":{"Latitude":40.38258287958277,"Longitude":-3.7436635618129914}},{"Node":"349","PosxNode":"436661,7","PosyNode":"4470296","Name":"EUGENIA DE MONTIJO Nº 78","Lines":"34/1","Loc":{"Latitude":40.380845966795206,"Longitude":-3.746174951229079}},{"Node":"350","PosxNode":"436772","PosyNode":"4470404","Name":"EUGENIA DE MONTIJO Nº 55","Lines":"34/2","Loc":{"Latitude":40.38182725553629,"Longitude":-3.7448863510232524}},{"Node":"351","PosxNode":"436597,3","PosyNode":"4470221","Name":"EUGENIA DE MONTIJO-NTRA.SRA.FATIMA","Lines":"34/1","Loc":{"Latitude":40.38016543606594,"Longitude":-3.7469261106412723}},{"Node":"352","PosxNode":"436609,4","PosyNode":"4470210","Name":"EUGENIA DE MONTIJO-NTRA.SRA.FATIMA","Lines":"34/2","Loc":{"Latitude":40.380067263757624,"Longitude":-3.7467824818333506}},{"Node":"353","PosxNode":"436324","PosyNode":"4469938","Name":"RONDA DON BOSCO-PZA.PARTERRE","Lines":"34/1 139/1","Loc":{"Latitude":40.37759520894685,"Longitude":-3.750117229869085}},{"Node":"354","PosxNode":"436154","PosyNode":"4469813","Name":"RONDA DON BOSCO-PARAGUAYA","Lines":"34/1","Loc":{"Latitude":40.3764561477602,"Longitude":-3.7521071821430447}},{"Node":"355","PosxNode":"436047","PosyNode":"4469531","Name":"JOAQUIN TURINA-POLVORANCA","Lines":"34/1","Loc":{"Latitude":40.37390756462026,"Longitude":-3.753339247612895}},{"Node":"356","PosxNode":"436052,5","PosyNode":"4469510","Name":"JOAQUIN TURINA-POLVORANCA","Lines":"34/2 139/2","Loc":{"Latitude":40.373718809397914,"Longitude":-3.7532723586121373}},{"Node":"357","PosxNode":"435691,2","PosyNode":"4469552","Name":"JOAQUIN TURINA-NAVALMORALES","Lines":"34/1","Loc":{"Latitude":40.37406936516786,"Longitude":-3.7575321931661256}},{"Node":"358","PosxNode":"435668,8","PosyNode":"4469541","Name":"JOAQUIN TURINA-NAVALMORALES","Lines":"34/2","Loc":{"Latitude":40.37396854381972,"Longitude":-3.7577949243122584}},{"Node":"359","PosxNode":"435143","PosyNode":"4469861","Name":"GRAL.MILLAN ASTRAY-GRAL.SALIQUET","Lines":"34/1 155/1","Loc":{"Latitude":40.37681048723003,"Longitude":-3.764020671214326}},{"Node":"360","PosxNode":"435126","PosyNode":"4469788","Name":"GRAL.MILLAN ASTRAY-GRAL.SALIQUET","Lines":"34/2 155/2 519/2","Loc":{"Latitude":40.37615154999613,"Longitude":-3.7642134855341003}},{"Node":"361","PosxNode":"435059,7","PosyNode":"4470144","Name":"GRAL.MILLAN ASTRAY-GRAL.R.BASART","Lines":"34/1 155/1","Loc":{"Latitude":40.37935337987021,"Longitude":-3.7650307053917187}},{"Node":"362","PosxNode":"435044","PosyNode":"4470135","Name":"GRAL.MILLAN ASTRAY-GRAL.R.BASART","Lines":"34/2 155/2 519/2","Loc":{"Latitude":40.37927108058063,"Longitude":-3.7652147266344027}},{"Node":"363","PosxNode":"434847","PosyNode":"4470145","Name":"GRAL.ROMERO BASART-JOSE DE CADALSO","Lines":"34/1","Loc":{"Latitude":40.379345785539904,"Longitude":-3.767536312109923}},{"Node":"364","PosxNode":"434803","PosyNode":"4470107","Name":"GRAL.ROMERO BASART-JOSE DE CADALSO","Lines":"34/2 519/2","Loc":{"Latitude":40.37900002506422,"Longitude":-3.7680507233831575}},{"Node":"365","PosxNode":"434543,5","PosyNode":"4470191","Name":"GRAL.ROMERO BASART-RAFAEL FINAT","Lines":"17/1 34/1 139/1","Loc":{"Latitude":40.37973638730899,"Longitude":-3.771116118894385}},{"Node":"366","PosxNode":"434539","PosyNode":"4470163","Name":"GRAL.ROMERO BASART-RAFAEL FINAT","Lines":"17/2 34/2 39/2 117/2 139/2 519/2","Loc":{"Latitude":40.37948379883356,"Longitude":-3.7711662508315738}},{"Node":"367","PosxNode":"434314","PosyNode":"4470347","Name":"OLIVA DE PLASENCIA-GRAL.R.BASART","Lines":"34/1","Loc":{"Latitude":40.38112363665413,"Longitude":-3.7738356107655875}},{"Node":"368","PosxNode":"434120,9","PosyNode":"4470324","Name":"OLIVA DE PLASENCIA Nº 25","Lines":"34/1","Loc":{"Latitude":40.38090119964508,"Longitude":-3.7761079136975177}},{"Node":"369","PosxNode":"433885,7","PosyNode":"4470299","Name":"MIRABEL-PZA.CUACOS DE YUSTE","Lines":"34/1","Loc":{"Latitude":40.38065736213665,"Longitude":-3.7788759197080966}},{"Node":"370","PosxNode":"433868","PosyNode":"4470296","Name":"MIRABEL-PZA.CUACOS DE YUSTE","Lines":"34/2","Loc":{"Latitude":40.380628932476995,"Longitude":-3.779084109344339}},{"Node":"371","PosxNode":"433912","PosyNode":"4470537","Name":"AV.GRAL.FANJUL -EST.RENFE AGUILAS","Lines":"17/2 34/1","Loc":{"Latitude":40.38280344126688,"Longitude":-3.7785907972921824}},{"Node":"372","PosxNode":"433862","PosyNode":"4470601","Name":"AV.GRAL.FANJUL -EST.RENFE AGUILAS","Lines":"17/2 34/2","Loc":{"Latitude":40.38337600963163,"Longitude":-3.7791864450031682}},{"Node":"373","PosxNode":"434113","PosyNode":"4470634","Name":"AV.GENERAL FANJUL","Lines":"34/1 34/2","Loc":{"Latitude":40.38369317205982,"Longitude":-3.7762330285896395}},{"Node":"374","PosxNode":"434252,8","PosyNode":"4470348","Name":"OLIVA DE PLASENCIA Nº 28","Lines":"34/2 39/1 117/1 519/1","Loc":{"Latitude":40.381127818447084,"Longitude":-3.7745566383239613}},{"Node":"375","PosxNode":"434361,4","PosyNode":"4470303","Name":"GRAL.ROMERO BASART-OLIVA PLASENCIA","Lines":"39/1 39/2 519/1 519/2","Loc":{"Latitude":40.38073100282699,"Longitude":-3.773272715401888}},{"Node":"376","PosxNode":"436350","PosyNode":"4469750","Name":"EUGENIA DE MONTIJO-PZA.EMPERATRIZ","Lines":"34/2 35/2 47/2 139/2 517/2","Loc":{"Latitude":40.375903608116666,"Longitude":-3.749792194581713}},{"Node":"377","PosxNode":"436337,5","PosyNode":"4469779","Name":"EUGENIA DE MONTIJO-PZA.EMPERATRIZ","Lines":"35/1 47/1 517/1","Loc":{"Latitude":40.37616389820507,"Longitude":-3.7499423282073923}},{"Node":"378","PosxNode":"436374","PosyNode":"4469862","Name":"EUGENIA DE MONTIJO-PZA.PARTERRE","Lines":"34/2 35/2 47/2 139/2 517/2","Loc":{"Latitude":40.376914386283445,"Longitude":-3.7495206797043927}},{"Node":"379","PosxNode":"436353","PosyNode":"4469884","Name":"EUGENIA DE MONTIJO-PZA.PARTERRE","Lines":"35/1 47/1 517/1","Loc":{"Latitude":40.377110968464635,"Longitude":-3.7497702386779337}},{"Node":"380","PosxNode":"439767,1","PosyNode":"4472866","Name":"Pº ACACIAS-DR.VALLEJO NAJERA","Lines":"34/2 36/2 62/1 116/2 118/2 119/2","Loc":{"Latitude":40.40422806441946,"Longitude":-3.709836693753147}},{"Node":"381","PosxNode":"439877,5","PosyNode":"4472930","Name":"Pº ACACIAS-Pº OLMOS","Lines":"34/2 36/2 62/1 116/2 118/2 119/2 512/2 515/2","Loc":{"Latitude":40.40481258666378,"Longitude":-3.708541784420957}},{"Node":"383","PosxNode":"444489,1","PosyNode":"4478784","Name":"ULISES-ARTURO SORIA","Lines":"120/1 122/1","Loc":{"Latitude":40.45786882870769,"Longitude":-3.6547089756808857}},{"Node":"384","PosxNode":"444491,5","PosyNode":"4478801","Name":"ULISES-ARTURO SORIA","Lines":"120/2 122/2","Loc":{"Latitude":40.45802213349425,"Longitude":-3.6546821578394035}},{"Node":"385","PosxNode":"444693,8","PosyNode":"4478894","Name":"ULISES-ASURA","Lines":"120/1 122/1","Loc":{"Latitude":40.45887341239787,"Longitude":-3.652304427357703}},{"Node":"386","PosxNode":"444684,8","PosyNode":"4478912","Name":"ULISES-ASURA","Lines":"120/2 122/2","Loc":{"Latitude":40.459034966374354,"Longitude":-3.652412139218114}},{"Node":"387","PosxNode":"445006,2","PosyNode":"4478899","Name":"MOSCATELAR-PARMA","Lines":"120/1 122/1","Loc":{"Latitude":40.45893918789289,"Longitude":-3.648620509112987}},{"Node":"388","PosxNode":"445060,7","PosyNode":"4478914","Name":"MOSCATELAR-PARMA","Lines":"120/2 122/2","Loc":{"Latitude":40.45907792048589,"Longitude":-3.647979050030808}},{"Node":"389","PosxNode":"445223","PosyNode":"4478894","Name":"MOSCATELAR-MILAN","Lines":"120/1 122/1","Loc":{"Latitude":40.45890846463355,"Longitude":-3.6460631998130664}},{"Node":"390","PosxNode":"445268","PosyNode":"4478921","Name":"MOSCATELAR-MILAN","Lines":"120/2 122/2","Loc":{"Latitude":40.4591546595749,"Longitude":-3.645534810827809}},{"Node":"391","PosxNode":"445524,5","PosyNode":"4478978","Name":"SILVANO-PZA.DEL LICEO","Lines":"120/1 122/1","Loc":{"Latitude":40.45968499971222,"Longitude":-3.642514602801337}},{"Node":"392","PosxNode":"445508,6","PosyNode":"4478988","Name":"SILVANO-PZA.DEL LICEO","Lines":"120/2 122/2","Loc":{"Latitude":40.45977404237562,"Longitude":-3.6427029836425504}},{"Node":"393","PosxNode":"445651,2","PosyNode":"4479173","Name":"SILVANO-COL.VIRGEN DE LA ESPERANZA","Lines":"120/1 122/1","Loc":{"Latitude":40.4614499572517,"Longitude":-3.6410370187500516}},{"Node":"394","PosxNode":"445623,7","PosyNode":"4479172","Name":"SILVANO-COL.VIRGEN DE LA ESPERANZA","Lines":"120/2 122/2","Loc":{"Latitude":40.461439149546635,"Longitude":-3.641361272713017}},{"Node":"395","PosxNode":"445912,5","PosyNode":"4479433","Name":"SILVANO-ALCORISA","Lines":"120/1 122/1","Loc":{"Latitude":40.46380922282142,"Longitude":-3.6379773602148977}},{"Node":"396","PosxNode":"445838,3","PosyNode":"4479398","Name":"SILVANO-ALCORISA","Lines":"120/2 122/2","Loc":{"Latitude":40.4634890910128,"Longitude":-3.6388495313954197}},{"Node":"397","PosxNode":"446060","PosyNode":"4479500","Name":"SILVANO-EL ALGABEÑO","Lines":"120/1 122/1","Loc":{"Latitude":40.464422382837164,"Longitude":-3.63624335303608}},{"Node":"398","PosxNode":"446038","PosyNode":"4479521","Name":"SILVANO-EL ALGABEÑO","Lines":"120/2 122/2","Loc":{"Latitude":40.464610133162665,"Longitude":-3.6365046222291486}},{"Node":"399","PosxNode":"442569","PosyNode":"4484874","Name":"FEDERICO MOMPOU-ISABEL COLBRAND","Lines":"524/1","Loc":{"Latitude":40.512599591100006,"Longitude":-3.6779053661645023}},{"Node":"405","PosxNode":"447930,3","PosyNode":"4479345","Name":"CAMPO NACIONES-GTA.JUAN DE BORBON","Lines":"112/1 122/1","Loc":{"Latitude":40.46314537729702,"Longitude":-3.61417094065672}},{"Node":"406","PosxNode":"447885","PosyNode":"4479362","Name":"CAMPO NACIONES-GTA.JUAN DE BORBON","Lines":"112/2 122/2","Loc":{"Latitude":40.463295682655506,"Longitude":-3.6147066287465486}},{"Node":"408","PosxNode":"444045","PosyNode":"4478511","Name":"AV.RAMON Y CAJAL-AV.LA PAZ","Lines":"9/1 72/1 73/1 120/1 502/1","Loc":{"Latitude":40.45537972675818,"Longitude":-3.6599224068577225}},{"Node":"409","PosxNode":"444010","PosyNode":"4478527","Name":"AV.RAMON Y CAJAL-AV.LA PAZ","Lines":"9/2 72/2 73/2 120/2 502/2","Loc":{"Latitude":40.45552150544704,"Longitude":-3.6603365751579746}},{"Node":"410","PosxNode":"443445","PosyNode":"4478381","Name":"AV.RAMON Y CAJAL-MOSTOLES","Lines":"43/2 120/1","Loc":{"Latitude":40.45416801142712,"Longitude":-3.666986657366466}},{"Node":"411","PosxNode":"443422","PosyNode":"4478413","Name":"AV.RAMON Y CAJAL-MOSTOLES","Lines":"43/1 120/2","Loc":{"Latitude":40.45445471744876,"Longitude":-3.667260744229451}},{"Node":"412","PosxNode":"442716","PosyNode":"4478300","Name":"AV.RAMON Y CAJAL-PPE.VERGARA","Lines":"43/2 52/1 120/1","Loc":{"Latitude":40.45338840036576,"Longitude":-3.6755763151062695}},{"Node":"413","PosxNode":"442695","PosyNode":"4478323","Name":"AV.RAMON Y CAJAL-PPE.VERGARA","Lines":"43/1 52/2 120/2","Loc":{"Latitude":40.453594147487905,"Longitude":-3.6758260372206344}},{"Node":"414","PosxNode":"442649","PosyNode":"4478079","Name":"PRINCIPE DE VERGARA-PZA.CATALUÑA","Lines":"16/1 29/1 52/1 501/1","Loc":{"Latitude":40.451392908634176,"Longitude":-3.6763464629363467}},{"Node":"415","PosxNode":"442616","PosyNode":"4478042","Name":"PRINCIPE DE VERGARA-PZA.CATALUÑA","Lines":"16/2 29/2 52/2","Loc":{"Latitude":40.451057317739554,"Longitude":-3.676732266012185}},{"Node":"416","PosxNode":"442407","PosyNode":"4477842","Name":"AV.DR.ARCE-PZA.SANTA GEMA","Lines":"7/1 16/1 19/2 51/1 501/1","Loc":{"Latitude":40.449241169821875,"Longitude":-3.6791787101536833}},{"Node":"417","PosxNode":"442372","PosyNode":"4477851","Name":"AV.DR.ARCE-PZA.SANTA GEMA","Lines":"16/2 19/1","Loc":{"Latitude":40.44931982037857,"Longitude":-3.6795922448829455}},{"Node":"418","PosxNode":"442263","PosyNode":"4477704","Name":"AV.DOCTOR ARCE-VELAZQUEZ","Lines":"16/1 19/2 51/1 501/1","Loc":{"Latitude":40.44798801244765,"Longitude":-3.680864203526451}},{"Node":"419","PosxNode":"441920","PosyNode":"4477703","Name":"JOAQUIN COSTA-PZA.REP.ARGENTINA","Lines":"7/2 69/2","Loc":{"Latitude":40.447955110825916,"Longitude":-3.684908669948743}},{"Node":"420","PosxNode":"441915","PosyNode":"4477644","Name":"JOAQUIN COSTA-PZA.REP.ARGENTINA","Lines":"7/1 68/1","Loc":{"Latitude":40.44742326242096,"Longitude":-3.6849622324592577}},{"Node":"421","PosxNode":"441586","PosyNode":"4477694","Name":"JOAQUIN COSTA-N.MINISTERIOS","Lines":"7/1 68/1","Loc":{"Latitude":40.4478506325709,"Longitude":-3.68884626941235}},{"Node":"422","PosxNode":"441592","PosyNode":"4477739","Name":"JOAQUIN COSTA-N.MINISTERIOS","Lines":"7/2 69/2","Loc":{"Latitude":40.448256434442506,"Longitude":-3.6887796579133543}},{"Node":"423","PosxNode":"442067","PosyNode":"4475042","Name":"VELAZQUEZ-VILLANUEVA","Lines":"1/1 9/1 19/2 51/1 74/1","Loc":{"Latitude":40.42399380126515,"Longitude":-3.682932698593724}},{"Node":"424","PosxNode":"442085","PosyNode":"4475344","Name":"VELAZQUEZ-GOYA","Lines":"1/1 9/1 19/2 51/1 74/1 504/1","Loc":{"Latitude":40.426715620743714,"Longitude":-3.6827480317819306}},{"Node":"425","PosxNode":"442107","PosyNode":"4475646","Name":"VELAZQUEZ-AYALA","Lines":"1/1 9/1 19/2 51/1 74/1","Loc":{"Latitude":40.42943771716378,"Longitude":-3.6825161977056284}},{"Node":"426","PosxNode":"442133","PosyNode":"4475920","Name":"VELAZQUEZ-J.ORTEGA Y GASSET","Lines":"1/1 9/1 19/2 51/1 74/1 504/1","Loc":{"Latitude":40.431907852615865,"Longitude":-3.682234641441535}},{"Node":"427","PosxNode":"442144","PosyNode":"4476145","Name":"VELAZQUEZ-JUAN BRAVO","Lines":"9/1 19/2 51/1 504/1","Loc":{"Latitude":40.433935527416445,"Longitude":-3.6821254451841456}},{"Node":"428","PosxNode":"442163","PosyNode":"4476431","Name":"VELAZQUEZ-DIEGO DE LEON","Lines":"9/1 19/2 51/1 504/1","Loc":{"Latitude":40.43651327526934,"Longitude":-3.6819274782023372}},{"Node":"430","PosxNode":"442209","PosyNode":"4476996","Name":"VELAZQUEZ-LOPEZ DE HOYOS","Lines":"16/1 19/2 51/1 501/1","Loc":{"Latitude":40.44160626362937,"Longitude":-3.6814365412849748}},{"Node":"431","PosxNode":"442215","PosyNode":"4477179","Name":"VELAZQUEZ-JOAQUIN COSTA","Lines":"16/1 19/2 51/1","Loc":{"Latitude":40.443255231299275,"Longitude":-3.6813824436260365}},{"Node":"432","PosxNode":"442229","PosyNode":"4477371","Name":"VELAZQUEZ Nº 150","Lines":"16/1 19/2 51/1 501/1","Loc":{"Latitude":40.444985830656975,"Longitude":-3.6812348329951314}},{"Node":"433","PosxNode":"442492","PosyNode":"4478054","Name":"CINCA-PZA.DE CATALUÑA","Lines":"7/1 51/1","Loc":{"Latitude":40.45115684962802,"Longitude":-3.678195593650686}},{"Node":"434","PosxNode":"442293","PosyNode":"4478155","Name":"CINCA-SERRANO","Lines":"7/1 51/1","Loc":{"Latitude":40.45205291247342,"Longitude":-3.6805514357646807}},{"Node":"435","PosxNode":"442364","PosyNode":"4478363","Name":"SERRANO-HOSPITAL SAN RAFAEL","Lines":"7/1 51/1","Loc":{"Latitude":40.453931598479336,"Longitude":-3.679733054191067}},{"Node":"436","PosxNode":"442337","PosyNode":"4478374","Name":"SERRANO-HOSPITAL SAN RAFAEL","Lines":"51/2 501/2","Loc":{"Latitude":40.45402881873508,"Longitude":-3.6800524578106084}},{"Node":"437","PosxNode":"442636","PosyNode":"4478641","Name":"SERRANO-PRINCIPE DE VERGARA","Lines":"7/1 51/1","Loc":{"Latitude":40.456454768750525,"Longitude":-3.6765505404034897}},{"Node":"438","PosxNode":"442567","PosyNode":"4478614","Name":"SERRANO-PRINCIPE DE VERGARA","Lines":"51/2 501/2","Loc":{"Latitude":40.456206774760055,"Longitude":-3.6773618291998664}},{"Node":"439","PosxNode":"442738","PosyNode":"4479024","Name":"PRINCIPE DE VERGARA-COLOMBIA","Lines":"7/1 16/1 29/1 51/1 501/1","Loc":{"Latitude":40.45991204330451,"Longitude":-3.6753821828706283}},{"Node":"440","PosxNode":"442692","PosyNode":"4478963","Name":"PRINCIPE DE VERGARA-COLOMBIA","Lines":"7/2 16/2 29/2 51/2 501/2","Loc":{"Latitude":40.45935935627132,"Longitude":-3.6759191908959554}},{"Node":"441","PosxNode":"442223","PosyNode":"4478128","Name":"SERRANO-SEGRE","Lines":"7/2 51/2 501/2","Loc":{"Latitude":40.451804821253624,"Longitude":-3.681374449128577}},{"Node":"442","PosxNode":"442112","PosyNode":"4477897","Name":"SERRANO-GUADIANA","Lines":"7/2 51/2 501/2","Loc":{"Latitude":40.44971614433135,"Longitude":-3.6826623454548075}},{"Node":"443","PosxNode":"441942","PosyNode":"4477519","Name":"SERRANO-PZA.REP.ARGENTINA","Lines":"16/2 19/1 51/2 501/2","Loc":{"Latitude":40.44629909090807,"Longitude":-3.68463243246637}},{"Node":"444","PosxNode":"441921","PosyNode":"4477302","Name":"SERRANO-INST.RAMIRO DE MAEZTU","Lines":"16/2 19/1 51/2 501/2","Loc":{"Latitude":40.44434278773114,"Longitude":-3.6848602102488393}},{"Node":"445","PosxNode":"441909","PosyNode":"4477105","Name":"SERRANO Nº 111","Lines":"16/2 19/1 51/2","Loc":{"Latitude":40.442567281725154,"Longitude":-3.684983687893978}},{"Node":"446","PosxNode":"441892","PosyNode":"4476838","Name":"SERRANO-MARIA DE MOLINA","Lines":"9/2 16/2 19/1 51/2 501/2","Loc":{"Latitude":40.440160832833364,"Longitude":-3.68515970968719}},{"Node":"447","PosxNode":"441870","PosyNode":"4476561","Name":"SERRANO-GRAL.ORAA","Lines":"9/2 16/2 19/1 51/2 504/2","Loc":{"Latitude":40.43766394855549,"Longitude":-3.6853937549065208}},{"Node":"448","PosxNode":"441856","PosyNode":"4476346","Name":"SERRANO-MALDONADO","Lines":"9/2 19/1 51/2 504/2","Loc":{"Latitude":40.435726147757165,"Longitude":-3.6855391410102616}},{"Node":"449","PosxNode":"441815","PosyNode":"4475872","Name":"SERRANO-MQUES.VILLAMAGNA","Lines":"1/2 9/2 19/1 51/2 74/2 504/2","Loc":{"Latitude":40.43145326139733,"Longitude":-3.6859791182351227}},{"Node":"451","PosxNode":"441756","PosyNode":"4475482","Name":"SERRANO-GOYA","Lines":"1/2 9/2 19/1 51/2 74/2 504/2","Loc":{"Latitude":40.42793582356516,"Longitude":-3.6866389245657256}},{"Node":"452","PosxNode":"441709","PosyNode":"4475143","Name":"SERRANO-MUSEO ARQUEOLOGICO","Lines":"1/2 9/2 19/1 51/2 74/2 504/2","Loc":{"Latitude":40.42487865424308,"Longitude":-3.6871618891015556}},{"Node":"453","PosxNode":"442021","PosyNode":"4478327","Name":"AV.CONCHA ESPINA-PZA.S.CORAZONES","Lines":"43/2 120/1","Loc":{"Latitude":40.45358343775521,"Longitude":-3.6837746818902835}},{"Node":"454","PosxNode":"442014","PosyNode":"4478358","Name":"AV.CONCHA ESPINA-PZA.S.CORAZONES","Lines":"43/1 120/2","Loc":{"Latitude":40.453862211411526,"Longitude":-3.683860061950753}},{"Node":"455","PosxNode":"442374","PosyNode":"4478302","Name":"AV.CONCHA ESPINA-SERRANO","Lines":"43/2 120/1","Loc":{"Latitude":40.45338277585731,"Longitude":-3.6796095900590817}},{"Node":"456","PosxNode":"442371","PosyNode":"4478338","Name":"AV.CONCHA ESPINA-SERRANO","Lines":"7/2 43/1 120/2","Loc":{"Latitude":40.453706872395806,"Longitude":-3.6796482356561944}},{"Node":"457","PosxNode":"442950","PosyNode":"4478295","Name":"AV.RAMON Y CAJAL-VICTOR DE LA SERNA","Lines":"43/2 120/1","Loc":{"Latitude":40.45335945265031,"Longitude":-3.6728163781108405}},{"Node":"458","PosxNode":"442956","PosyNode":"4478332","Name":"AV.RAMON Y CAJAL-VICTOR DE LA SERNA","Lines":"43/1 120/2","Loc":{"Latitude":40.45369317794425,"Longitude":-3.6727489463037193}},{"Node":"459","PosxNode":"443220","PosyNode":"4478371","Name":"AV.RAMON Y CAJAL Nº 32","Lines":"43/2 120/1","Loc":{"Latitude":40.454062585833725,"Longitude":-3.6696391498757874}},{"Node":"460","PosxNode":"443215","PosyNode":"4478395","Name":"AV.RAMON Y CAJAL Nº 43","Lines":"43/1 120/2","Loc":{"Latitude":40.45427844768357,"Longitude":-3.6697002604886224}},{"Node":"461","PosxNode":"443721","PosyNode":"4478401","Name":"AV.RAMON Y CAJAL-PADRE CLARET","Lines":"120/1","Loc":{"Latitude":40.454366916086435,"Longitude":-3.663733606283005}},{"Node":"462","PosxNode":"443639,8","PosyNode":"4478406","Name":"AV.RAMON Y CAJAL-PADRE CLARET","Lines":"9/2 72/2 73/2 120/2 502/2","Loc":{"Latitude":40.4544064561318,"Longitude":-3.664691631659899}},{"Node":"463","PosxNode":"444284","PosyNode":"4478651","Name":"JOSE SILVA-AGASTIA","Lines":"120/1","Loc":{"Latitude":40.45665697316078,"Longitude":-3.6571161505705794}},{"Node":"464","PosxNode":"444268,2","PosyNode":"4478659","Name":"JOSE SILVA-AGASTIA","Lines":"120/2","Loc":{"Latitude":40.45672798170388,"Longitude":-3.657303186943551}},{"Node":"465","PosxNode":"446450","PosyNode":"4479499","Name":"SILVANO-JOSE DOMINGO RUS","Lines":"120/1","Loc":{"Latitude":40.464438602874154,"Longitude":-3.6316433326623763}},{"Node":"466","PosxNode":"446450,1","PosyNode":"4479521","Name":"SILVANO-JOSE DOMINGO RUS","Lines":"120/2 503/2","Loc":{"Latitude":40.46463679695497,"Longitude":-3.631644009742671}},{"Node":"467","PosxNode":"446733,5","PosyNode":"4479544","Name":"PEDROÑERAS-SILVANO","Lines":"120/1","Loc":{"Latitude":40.464862211258115,"Longitude":-3.628303307267714}},{"Node":"468","PosxNode":"446720","PosyNode":"4479536","Name":"PEDROÑERAS-SILVANO","Lines":"120/2 503/1 503/2","Loc":{"Latitude":40.46478927734213,"Longitude":-3.6284618652825937}},{"Node":"469","PosxNode":"446693,7","PosyNode":"4479708","Name":"PEDROÑERAS-EL PROVENCIO","Lines":"73/2 120/1","Loc":{"Latitude":40.46633705785912,"Longitude":-3.628786517613232}},{"Node":"470","PosxNode":"446692","PosyNode":"4479662","Name":"PEDROÑERAS-EL PROVENCIO","Lines":"73/1 120/2 503/1","Loc":{"Latitude":40.46592255633657,"Longitude":-3.6288027045473887}},{"Node":"471","PosxNode":"446554,2","PosyNode":"4479763","Name":"MOTA DEL CUERVO Nº 9","Lines":"73/2 120/1","Loc":{"Latitude":40.46682356417233,"Longitude":-3.6304365598410393}},{"Node":"472","PosxNode":"446551","PosyNode":"4479740","Name":"MOTA DEL CUERVO Nº 48","Lines":"73/1 120/2 503/1","Loc":{"Latitude":40.46661616216508,"Longitude":-3.6304723667726666}},{"Node":"473","PosxNode":"446344,5","PosyNode":"4479748","Name":"MOTA DEL CUERVO-MOTILLA DEL PALANCAR","Lines":"73/2 120/1","Loc":{"Latitude":40.46667491903891,"Longitude":-3.632908730023318}},{"Node":"474","PosxNode":"446342","PosyNode":"4479735","Name":"MOTA DEL CUERVO-MOTILLA DEL PALANCAR","Lines":"73/1 120/2 503/1","Loc":{"Latitude":40.46655764676619,"Longitude":-3.632937118395517}},{"Node":"475","PosxNode":"446192","PosyNode":"4479854","Name":"LOS EMIGRANTES-TREFACIO","Lines":"112/2 120/1 153/1","Loc":{"Latitude":40.46761995874396,"Longitude":-3.6347164720974767}},{"Node":"476","PosxNode":"446165,5","PosyNode":"4479851","Name":"LOS EMIGRANTES-CTRA.DE CANILLAS","Lines":"112/1 120/2 153/2","Loc":{"Latitude":40.467591216316755,"Longitude":-3.6350287920036553}},{"Node":"477","PosxNode":"446114,5","PosyNode":"4480036","Name":"LOS EMIGRANTES-TRIBALDOS","Lines":"112/2 120/1 153/1","Loc":{"Latitude":40.46925448520343,"Longitude":-3.635646062881304}},{"Node":"478","PosxNode":"446088,5","PosyNode":"4480022","Name":"LOS EMIGRANTES-TRIBALDOS","Lines":"112/1 120/2 153/2","Loc":{"Latitude":40.46912667901278,"Longitude":-3.6359515573901007}},{"Node":"479","PosxNode":"445922","PosyNode":"4480323","Name":"AYACUCHO-MAR ADRIATICO","Lines":"120/1 125/1 172/1 372/1","Loc":{"Latitude":40.47182741762483,"Longitude":-3.6379411706922102}},{"Node":"480","PosxNode":"445692,4","PosyNode":"4480329","Name":"AYACUCHO-GTA.SANDRO PERTINI","Lines":"87/2 120/1 125/1 172/1 372/1","Loc":{"Latitude":40.47186648849681,"Longitude":-3.6406500430739026}},{"Node":"481","PosxNode":"445585,2","PosyNode":"4480369","Name":"VALDETORRES DE JARAMA-LIBERACION","Lines":"120/1 125/1 172/1 372/1","Loc":{"Latitude":40.47221981250883,"Longitude":-3.641918004590439}},{"Node":"482","PosxNode":"445550,6","PosyNode":"4480359","Name":"VALDETORRES DE JARAMA-LIBERACION","Lines":"120/2 125/2 172/2 372/2","Loc":{"Latitude":40.47212746006709,"Longitude":-3.6423252895515694}},{"Node":"483","PosxNode":"445425,7","PosyNode":"4480463","Name":"VALDETORRES DE JARAMA-ANGEL LUIS HERRAN","Lines":"120/1 125/1 172/1 372/1","Loc":{"Latitude":40.473056146444186,"Longitude":-3.6438075618368506}},{"Node":"484","PosxNode":"445425,2","PosyNode":"4480433","Name":"VALDETORRES DE JARAMA-ANGEL LUIS HERRAN","Lines":"120/2 125/2 172/2 372/2","Loc":{"Latitude":40.472785858757774,"Longitude":-3.643810878736236}},{"Node":"485","PosxNode":"445314,5","PosyNode":"4480529","Name":"VALDETORRES DE JARAMA-ROGELIO MUÑOZ","Lines":"120/1 125/1 172/1 372/1","Loc":{"Latitude":40.47364339285908,"Longitude":-3.6451249885594037}},{"Node":"486","PosxNode":"445290,3","PosyNode":"4480512","Name":"VALDETORRES DE JARAMA-ROGELIO MUÑOZ","Lines":"120/2 125/2 172/2 372/2","Loc":{"Latitude":40.473488654793286,"Longitude":-3.645408992496499}},{"Node":"487","PosxNode":"445158","PosyNode":"4480625","Name":"VALDETORRES DE JARAMA-PZA.SANTOS HUMOSA","Lines":"120/1 125/1 172/1 372/1","Loc":{"Latitude":40.47449788861921,"Longitude":-3.6469794086760356}},{"Node":"488","PosxNode":"445059,2","PosyNode":"4480656","Name":"PZA.SANTOS DE LA HUMOSA","Lines":"120/1 120/2","Loc":{"Latitude":40.4747706217612,"Longitude":-3.6481475819315303}},{"Node":"489","PosxNode":"445787,9","PosyNode":"4480213","Name":"AREQUIPA-TORRESANDINO","Lines":"87/1 120/2 125/2 172/2 372/2","Loc":{"Latitude":40.470827740548735,"Longitude":-3.639513612103643}},{"Node":"490","PosxNode":"445935","PosyNode":"4480210","Name":"AREQUIPA-LOS EMIGRANTES","Lines":"120/2","Loc":{"Latitude":40.47081030255077,"Longitude":-3.6377781918760124}},{"Node":"491","PosxNode":"441148","PosyNode":"4475703","Name":"ALMAGRO-PZA.ALONSO MARTINEZ","Lines":"7/1 7/2 525/1 525/2 526/1 526/2","Loc":{"Latitude":40.42988390529456,"Longitude":-3.6938266047366377}},{"Node":"492","PosxNode":"441354,7","PosyNode":"4475959","Name":"ALMAGRO-ZURBANO","Lines":"7/1","Loc":{"Latitude":40.43220467245686,"Longitude":-3.6914135348110806}},{"Node":"493","PosxNode":"441301","PosyNode":"4475937","Name":"ALMAGRO-ZURBANO","Lines":"7/2","Loc":{"Latitude":40.43200269818925,"Longitude":-3.692044568945193}},{"Node":"494","PosxNode":"441458","PosyNode":"4476165","Name":"ALMAGRO-Pº EDUARDO DATO","Lines":"7/1","Loc":{"Latitude":40.43406769450259,"Longitude":-3.690214712045759}},{"Node":"495","PosxNode":"441434","PosyNode":"4476193","Name":"ALMAGRO-Pº EDUARDO DATO","Lines":"7/2","Loc":{"Latitude":40.434318242009304,"Longitude":-3.6905002346956066}},{"Node":"496","PosxNode":"442999,2","PosyNode":"4483312","Name":"AV.Cº SANTIAGO-ESTELLA","Lines":"172/2 176/2 372/2","Loc":{"Latitude":40.49855816079929,"Longitude":-3.6726870968319405}},{"Node":"497","PosxNode":"443571","PosyNode":"4480472","Name":"ARTURO SORIA-JULIO DANVILA","Lines":"7/1 29/1 107/1 501/1","Loc":{"Latitude":40.47301328601484,"Longitude":-3.6656866945552617}},{"Node":"498","PosxNode":"443533","PosyNode":"4480453","Name":"ARTURO SORIA-SERRANO GALVACHE","Lines":"7/2 29/2 107/2 501/2","Loc":{"Latitude":40.4728395428166,"Longitude":-3.6661332561887994}},{"Node":"499","PosxNode":"443525","PosyNode":"4480702","Name":"ARTURO SORIA-ELADIO LOPEZ VILCHES","Lines":"7/1 29/1 107/1","Loc":{"Latitude":40.47508210354787,"Longitude":-3.666249796007578}},{"Node":"500","PosxNode":"443486","PosyNode":"4480695","Name":"ARTURO SORIA-ELADIO LOPEZ VILCHES","Lines":"7/2 29/2 107/2","Loc":{"Latitude":40.47501639149243,"Longitude":-3.666709235530621}},{"Node":"501","PosxNode":"443510,1","PosyNode":"4480947","Name":"AV.SAN LUIS-ARTURO SORIA","Lines":"7/1 107/1 125/2 501/1","Loc":{"Latitude":40.477288160115364,"Longitude":-3.666447386802206}},{"Node":"502","PosxNode":"443494","PosyNode":"4480985","Name":"AV.SAN LUIS-ARTURO SORIA","Lines":"7/2 107/2","Loc":{"Latitude":40.47762938574495,"Longitude":-3.6666407025492322}},{"Node":"503","PosxNode":"443670","PosyNode":"4480867","Name":"AV.SAN LUIS-MESENA","Lines":"7/1 107/1 125/2 501/1","Loc":{"Latitude":40.47657834553275,"Longitude":-3.6645539591158167}},{"Node":"504","PosxNode":"443664","PosyNode":"4480893","Name":"AV.SAN LUIS-GOLFO DE SALONICA","Lines":"7/2 107/2 125/1","Loc":{"Latitude":40.476812158266625,"Longitude":-3.6646270493426885}},{"Node":"505","PosxNode":"443915","PosyNode":"4480770","Name":"CUEVAS DE ALMANZORA-AV.SAN LUIS","Lines":"7/1 501/1","Loc":{"Latitude":40.475721107084,"Longitude":-3.6616551733246023}},{"Node":"506","PosxNode":"443895","PosyNode":"4480782","Name":"CUEVAS DE ALMANZORA-AV.SAN LUIS","Lines":"7/2","Loc":{"Latitude":40.47582785769886,"Longitude":-3.6618921672484457}},{"Node":"507","PosxNode":"444098","PosyNode":"4480953","Name":"CUEVAS DE ALMANZORA-BACARES","Lines":"7/1 29/2 129/2 501/1","Loc":{"Latitude":40.47738199352427,"Longitude":-3.659512522756244}},{"Node":"508","PosxNode":"444266","PosyNode":"4481107","Name":"CUEVAS DE ALMANZORA Nº 18","Lines":"7/1 29/2 129/2 501/1","Loc":{"Latitude":40.47878058862209,"Longitude":-3.657544175811274}},{"Node":"509","PosxNode":"444221","PosyNode":"4481352","Name":"ALICUN-SOMONTIN","Lines":"7/1 29/2 129/1","Loc":{"Latitude":40.48098463937717,"Longitude":-3.658096600502647}},{"Node":"510","PosxNode":"444070","PosyNode":"4481245","Name":"VELEZ RUBIO Nº 113","Lines":"7/1 29/2 129/1","Loc":{"Latitude":40.48001057756238,"Longitude":-3.659868591262355}},{"Node":"511","PosxNode":"443963","PosyNode":"4481043","Name":"BACARES-VELEZ RUBIO","Lines":"7/1 7/2 29/1 29/2","Loc":{"Latitude":40.47818365600811,"Longitude":-3.661113058697885}},{"Node":"512","PosxNode":"444057","PosyNode":"4480944","Name":"BACARES-CUEVAS DE ALMANZORA","Lines":"7/2","Loc":{"Latitude":40.477298156458076,"Longitude":-3.659995402227156}},{"Node":"513","PosxNode":"443447","PosyNode":"4480904","Name":"ARTURO SORIA-CUARTEL INFANTERIA MARINA","Lines":"7/2 29/2 107/2 501/2","Loc":{"Latitude":40.476896502300704,"Longitude":-3.6671879352640198}},{"Node":"514","PosxNode":"442667","PosyNode":"4478587","Name":"PRINCIPE DE VERGARA-SERRANO","Lines":"7/2 16/2 29/2","Loc":{"Latitude":40.455970451009705,"Longitude":-3.676180073952812}},{"Node":"515","PosxNode":"442690","PosyNode":"4478556","Name":"PRINCIPE DE VERGARA-SERRANO","Lines":"16/1 29/1 501/1","Loc":{"Latitude":40.455692775030975,"Longitude":-3.6759060334934204}},{"Node":"516","PosxNode":"442649,9","PosyNode":"4478393","Name":"PRINCIPE DE VERGARA-CONCHA ESPINA","Lines":"7/2 16/2 29/2","Loc":{"Latitude":40.454221629307234,"Longitude":-3.6763642115706903}},{"Node":"517","PosxNode":"442667","PosyNode":"4478281","Name":"PRINCIPE DE VERGARA-CONCHA ESPINA","Lines":"16/1 29/1","Loc":{"Latitude":40.453213860917145,"Longitude":-3.6761524405847843}},{"Node":"518","PosxNode":"441147","PosyNode":"4475749","Name":"ALMAGRO Nº 3","Lines":"7/2","Loc":{"Latitude":40.43029822413501,"Longitude":-3.693842652190912}},{"Node":"520","PosxNode":"439305,6","PosyNode":"4476541","Name":"FDEZ.DE LOS RIOS-HILARION ESLAVA","Lines":"16/1 61/1","Loc":{"Latitude":40.43730057440654,"Longitude":-3.7156257416678145}},{"Node":"521","PosxNode":"439598","PosyNode":"4476522","Name":"FDEZ.DE LOS RIOS-GUZMAN EL BUENO","Lines":"16/1 61/1","Loc":{"Latitude":40.437150703216936,"Longitude":-3.7121766061035726}},{"Node":"522","PosxNode":"439972","PosyNode":"4476494","Name":"FDEZ.DE LOS RIOS-VALLEHERMOSO","Lines":"16/1 61/1","Loc":{"Latitude":40.43692554706711,"Longitude":-3.707764591931342}},{"Node":"523","PosxNode":"440322","PosyNode":"4476466","Name":"FDEZ.DE LOS RIOS-MAGALLANES","Lines":"16/1 61/1","Loc":{"Latitude":40.43669850039001,"Longitude":-3.7036355573919746}},{"Node":"524","PosxNode":"440495,1","PosyNode":"4476387","Name":"CARDENAL CISNEROS-ELOY GONZALO","Lines":"16/1 61/1","Loc":{"Latitude":40.435999236798466,"Longitude":-3.701587363537162}},{"Node":"525","PosxNode":"440760","PosyNode":"4476437","Name":"ELOY GONZALO-JUAN DE AUSTRIA","Lines":"16/1 61/1","Loc":{"Latitude":40.43646857062566,"Longitude":-3.698468964843048}},{"Node":"526","PosxNode":"440753","PosyNode":"4476462","Name":"ELOY GONZALO-JUAN DE AUSTRIA","Lines":"16/2 61/2","Loc":{"Latitude":40.43669328322569,"Longitude":-3.698553823381728}},{"Node":"527","PosxNode":"441073","PosyNode":"4476472","Name":"GRAL.MTNEZ.CAMPOS-FDEZ.DE LA HOZ","Lines":"5/2 16/1 61/1","Loc":{"Latitude":40.436806103412884,"Longitude":-3.694782043391211}},{"Node":"528","PosxNode":"441141","PosyNode":"4476502","Name":"GRAL.MTNEZ.CAMPOS-FDEZ.DE LA HOZ","Lines":"5/1 16/2 61/2","Loc":{"Latitude":40.4370811726382,"Longitude":-3.6939831202624616}},{"Node":"529","PosxNode":"441541","PosyNode":"4476482","Name":"GRAL.MTNEZ.CAMPOS-FORTUNY","Lines":"7/1 16/1 40/1 61/1 147/1","Loc":{"Latitude":40.436929217353814,"Longitude":-3.689265363831717}},{"Node":"530","PosxNode":"441585,2","PosyNode":"4476509","Name":"GRAL.MTNEZ.CAMPOS-FORTUNY","Lines":"5/1 16/2 61/2","Loc":{"Latitude":40.437175551826115,"Longitude":-3.68874673810269}},{"Node":"532","PosxNode":"441817","PosyNode":"4476775","Name":"MARIA DE MOLINA-SERRANO","Lines":"12/1 16/1 501/1","Loc":{"Latitude":40.43958805490153,"Longitude":-3.686038215968827}},{"Node":"533","PosxNode":"441873,3","PosyNode":"4476800","Name":"MARIA DE MOLINA-SERRANO","Lines":"12/2","Loc":{"Latitude":40.43981720400674,"Longitude":-3.6853767125363364}},{"Node":"534","PosxNode":"442110","PosyNode":"4476852","Name":"LOPEZ DE HOYOS-VELAZQUEZ","Lines":"16/1","Loc":{"Latitude":40.44030215678377,"Longitude":-3.6825906896275704}},{"Node":"535","PosxNode":"442725,1","PosyNode":"4479306","Name":"PZA.PERU-AV.PIO XII","Lines":"150/2","Loc":{"Latitude":40.46245153862537,"Longitude":-3.6755597717739}},{"Node":"536","PosxNode":"442165","PosyNode":"4477691","Name":"AV.DOCTOR ARCE-VELAZQUEZ","Lines":"16/2 19/1","Loc":{"Latitude":40.44786409023774,"Longitude":-3.682018608134913}},{"Node":"537","PosxNode":"441755","PosyNode":"4476569","Name":"GRAL.ORAA-Pº CASTELLANA","Lines":"16/2 61/2","Loc":{"Latitude":40.43772796981794,"Longitude":-3.6867503271315414}},{"Node":"538","PosxNode":"440473","PosyNode":"4476378","Name":"ELOY GONZALO-CARDENAL CISNEROS","Lines":"16/2 61/2","Loc":{"Latitude":40.435916579257594,"Longitude":-3.7018470700708552}},{"Node":"540","PosxNode":"440234","PosyNode":"4476362","Name":"FERNANDO EL CATOLICO-MAGALLANES","Lines":"16/2 61/2","Loc":{"Latitude":40.43575530325882,"Longitude":-3.7046632688478818}},{"Node":"541","PosxNode":"439954","PosyNode":"4476391","Name":"FERNANDO EL CATOLICO-VALLEHERMOSO","Lines":"16/2 61/2","Loc":{"Latitude":40.435996379106,"Longitude":-3.7079670742020454}},{"Node":"542","PosxNode":"439643","PosyNode":"4476415","Name":"FERNANDO EL CATOLICO-G.EL BUENO","Lines":"16/2 61/2","Loc":{"Latitude":40.436190068958474,"Longitude":-3.7116359042180025}},{"Node":"543","PosxNode":"439294","PosyNode":"4476441","Name":"FERNANDO EL CATOLICO-HILARION ESLAVA","Lines":"16/1 16/2 61/1 61/2","Loc":{"Latitude":40.436398886092235,"Longitude":-3.7157529496898323}},{"Node":"544","PosxNode":"440136","PosyNode":"4474138","Name":"CONCEPCION JERONIMA","Lines":"17/1 17/2","Loc":{"Latitude":40.41571345475341,"Longitude":-3.7056092408731955}},{"Node":"545","PosxNode":"440008","PosyNode":"4473880","Name":"TOLEDO-LA LATINA","Lines":"17/1 18/1 23/1 35/1 526/1","Loc":{"Latitude":40.413380053103666,"Longitude":-3.707093521165237}},{"Node":"546","PosxNode":"440045","PosyNode":"4473910","Name":"TOLEDO-LA LATINA","Lines":"17/2 18/2 23/2 35/2 526/2","Loc":{"Latitude":40.413652973279795,"Longitude":-3.7066602806981335}},{"Node":"547","PosxNode":"439824,5","PosyNode":"4473582","Name":"TOLEDO-HUMILLADERO","Lines":"17/1 18/1 23/1 35/1 60/1 526/1","Loc":{"Latitude":40.410682283164036,"Longitude":-3.70922799543681}},{"Node":"548","PosxNode":"439891","PosyNode":"4473662","Name":"TOLEDO-HUMILLADERO","Lines":"17/2 18/2 23/2 35/2 526/2","Loc":{"Latitude":40.41140776556733,"Longitude":-3.7084518414588348}},{"Node":"549","PosxNode":"439637","PosyNode":"4473334","Name":"Pº PONTONES-RONDA SEGOVIA","Lines":"17/1 41/1","Loc":{"Latitude":40.40843460746639,"Longitude":-3.7114141817003916}},{"Node":"550","PosxNode":"439385,8","PosyNode":"4473148","Name":"Pº PONTONES-Pº IMPERIAL","Lines":"17/1 41/1 516/1","Loc":{"Latitude":40.406740780362654,"Longitude":-3.71435679049073}},{"Node":"551","PosxNode":"439398","PosyNode":"4473127","Name":"Pº PONTONES-Pº IMPERIAL","Lines":"17/2 41/2 516/2","Loc":{"Latitude":40.406552490738115,"Longitude":-3.714211020652482}},{"Node":"552","PosxNode":"439024,1","PosyNode":"4473076","Name":"Pº PONTONES-Pº MELANCOLICOS","Lines":"17/1 36/1 516/1","Loc":{"Latitude":40.40606575801546,"Longitude":-3.718612319654759}},{"Node":"553","PosxNode":"439025","PosyNode":"4473049","Name":"Pº PONTONES-Pº MELANCOLICOS","Lines":"17/2 36/2 62/1 516/2","Loc":{"Latitude":40.40582259553894,"Longitude":-3.718599126977102}},{"Node":"554","PosxNode":"438620","PosyNode":"4473036","Name":"Pº ERMITA DEL SANTO-PTE.SAN ISIDRO","Lines":"17/1 25/2 516/1","Loc":{"Latitude":40.40567572525171,"Longitude":-3.7233704968222776}},{"Node":"555","PosxNode":"438089","PosyNode":"4472804","Name":"VIA CARPETANA-CARAMUEL","Lines":"17/1 516/1","Loc":{"Latitude":40.4035464498568,"Longitude":-3.7296053480057916}},{"Node":"556","PosxNode":"438156","PosyNode":"4472818","Name":"VIA CARPETANA-CARAMUEL","Lines":"17/2 516/2","Loc":{"Latitude":40.40367754731568,"Longitude":-3.728817190956226}},{"Node":"557","PosxNode":"437696","PosyNode":"4472416","Name":"VIA CARPETANA-GALLUR","Lines":"17/1 516/1","Loc":{"Latitude":40.40002186205918,"Longitude":-3.7341984178045147}},{"Node":"558","PosxNode":"437744,1","PosyNode":"4472438","Name":"VIA CARPETANA-GALLUR","Lines":"17/2 25/2 516/2","Loc":{"Latitude":40.40022364516686,"Longitude":-3.7336337966519952}},{"Node":"559","PosxNode":"437518","PosyNode":"4472236","Name":"VIA CARPETANA-MOCHUELO","Lines":"17/1 516/1","Loc":{"Latitude":40.398387006868134,"Longitude":-3.736278163335807}},{"Node":"560","PosxNode":"437516","PosyNode":"4472193","Name":"VIA CARPETANA-MOCHUELO","Lines":"17/2 25/2 516/2","Loc":{"Latitude":40.39799949407105,"Longitude":-3.7362975091498924}},{"Node":"561","PosxNode":"437427","PosyNode":"4472077","Name":"VIA CARPETANA-DR.ZOFIO","Lines":"17/1","Loc":{"Latitude":40.39694783311474,"Longitude":-3.7373347829317303}},{"Node":"562","PosxNode":"436062,2","PosyNode":"4468423","Name":"AV.DE LA PESETA-AV.CARABANCHEL ALTO","Lines":"35/1 118/2 155/2 517/1 517/2","Loc":{"Latitude":40.36392737147482,"Longitude":-3.7530491065657063}},{"Node":"563","PosxNode":"437293","PosyNode":"4471925","Name":"VIA CARPETANA-NTRA.SRA.VALVANERA","Lines":"17/1 516/1","Loc":{"Latitude":40.39556847232877,"Longitude":-3.7388986909686643}},{"Node":"564","PosxNode":"437080,4","PosyNode":"4471706","Name":"VIA CARPETANA-LAGUNA","Lines":"17/1","Loc":{"Latitude":40.39357959162122,"Longitude":-3.741381994606548}},{"Node":"565","PosxNode":"437159","PosyNode":"4471758","Name":"VIA CARPETANA-LAGUNA","Lines":"17/2","Loc":{"Latitude":40.394053964124545,"Longitude":-3.7404610550686455}},{"Node":"566","PosxNode":"436953","PosyNode":"4471489","Name":"VIA CARPETANA-PETIRROJO","Lines":"17/1","Loc":{"Latitude":40.391615128223755,"Longitude":-3.74286154772194}},{"Node":"567","PosxNode":"436888","PosyNode":"4471328","Name":"VIA CARPETANA-GTA.DEL EJERCITO","Lines":"17/1","Loc":{"Latitude":40.3901598482372,"Longitude":-3.7436114061562153}},{"Node":"568","PosxNode":"438954","PosyNode":"4482694","Name":"GTA.PRADERA DE VAQUERIZAS","Lines":"64/1 64/2","Loc":{"Latitude":40.49270330175566,"Longitude":-3.7203629595578214}},{"Node":"569","PosxNode":"440714,6","PosyNode":"4479126","Name":"BRAVO MURILLO-MARIA ZAYAS","Lines":"66/2 124/2 523/2","Loc":{"Latitude":40.46068900459169,"Longitude":-3.6992552391942484}},{"Node":"570","PosxNode":"436137","PosyNode":"4470987","Name":"OCAÑA Nº 69","Lines":"17/1 526/1","Loc":{"Latitude":40.387030740317414,"Longitude":-3.7524250883646704}},{"Node":"571","PosxNode":"436184,8","PosyNode":"4471024","Name":"OCAÑA Nº 100","Lines":"17/2 526/2","Loc":{"Latitude":40.38736771474928,"Longitude":-3.7518656678246574}},{"Node":"572","PosxNode":"435777","PosyNode":"4470903","Name":"OCAÑA Nº 21","Lines":"17/1","Loc":{"Latitude":40.38624635927522,"Longitude":-3.7566577409211854}},{"Node":"573","PosxNode":"435770","PosyNode":"4470889","Name":"OCAÑA FRENTE Nº 21","Lines":"17/2","Loc":{"Latitude":40.38611970185905,"Longitude":-3.7567387946749267}},{"Node":"574","PosxNode":"435658","PosyNode":"4471019","Name":"OCAÑA-CAMARENA","Lines":"17/1 526/1","Loc":{"Latitude":40.38728215280347,"Longitude":-3.7580713660452756}},{"Node":"575","PosxNode":"435516,8","PosyNode":"4471117","Name":"INTERCAMBIADOR DE ALUCHE","Lines":"17/1 117/1","Loc":{"Latitude":40.38815405911372,"Longitude":-3.7597447528385533}},{"Node":"578","PosxNode":"435155","PosyNode":"4470826","Name":"RAFAEL FINAT-AV.GRAL.FANJUL","Lines":"17/1 117/1","Loc":{"Latitude":40.38550453214578,"Longitude":-3.7639775218971767}},{"Node":"579","PosxNode":"435224","PosyNode":"4470846","Name":"RAFAEL FINAT-AV.GRAL.FANJUL","Lines":"17/2 117/2","Loc":{"Latitude":40.385690067690405,"Longitude":-3.7631666937655974}},{"Node":"580","PosxNode":"434937","PosyNode":"4470592","Name":"RAFAEL FINAT Nº 36","Lines":"17/1 117/1","Loc":{"Latitude":40.38337957191257,"Longitude":-3.7665217959047292}},{"Node":"581","PosxNode":"434961,8","PosyNode":"4470591","Name":"RAFAEL FINAT Nº 31","Lines":"17/2 117/2","Loc":{"Latitude":40.383372499722,"Longitude":-3.766229544239713}},{"Node":"582","PosxNode":"434678","PosyNode":"4470306","Name":"RAFAEL FINAT-JOSE DE CADALSO","Lines":"17/1 117/1","Loc":{"Latitude":40.38078290683115,"Longitude":-3.7695435534098616}},{"Node":"583","PosxNode":"434724","PosyNode":"4470324","Name":"RAFAEL FINAT-JOSE DE CADALSO","Lines":"17/2 117/2","Loc":{"Latitude":40.38094866267726,"Longitude":-3.7690035280622367}},{"Node":"584","PosxNode":"434355,3","PosyNode":"4470379","Name":"GRAL.ROMERO BASART-O.PLASENCIA","Lines":"17/1 139/1","Loc":{"Latitude":40.38141515960126,"Longitude":-3.7733524010469752}},{"Node":"585","PosxNode":"434391,2","PosyNode":"4470291","Name":"GRAL.ROMERO BASART-O.PLASENCIA","Lines":"17/2 34/2 117/1 117/2 139/2","Loc":{"Latitude":40.38062524903038,"Longitude":-3.7729204434979327}},{"Node":"586","PosxNode":"434280","PosyNode":"4470623","Name":"GRAL.ROMERO BASART-GRAL.FANJUL","Lines":"139/2","Loc":{"Latitude":40.383607269091186,"Longitude":-3.774264591154269}},{"Node":"587","PosxNode":"434291","PosyNode":"4470629","Name":"GRAL.ROMERO BASART-GRAL.FANJUL","Lines":"17/1 139/1","Loc":{"Latitude":40.38366218694273,"Longitude":-3.774135627258163}},{"Node":"588","PosxNode":"436648","PosyNode":"4470908","Name":"NTRA.SRA.DE LA LUZ-NTRA.SRA.FATIMA","Lines":"17/2","Loc":{"Latitude":40.386358089371335,"Longitude":-3.7463971866308543}},{"Node":"589","PosxNode":"436791","PosyNode":"4470969","Name":"NTRA.SRA.FATIMA-FONTIVEROS","Lines":"17/2 35/2 517/2 526/2","Loc":{"Latitude":40.38691846578272,"Longitude":-3.7447185845022672}},{"Node":"590","PosxNode":"436940","PosyNode":"4471258","Name":"Pº MUÑOZ GRANDES-OCA","Lines":"17/2 35/1 517/1 526/2","Loc":{"Latitude":40.38953319590269,"Longitude":-3.7429918395002373}},{"Node":"591","PosxNode":"435258,7","PosyNode":"4470824","Name":"VIDAUBA-DAMASQUILLO","Lines":"155/2","Loc":{"Latitude":40.38549458006049,"Longitude":-3.7627556699830067}},{"Node":"592","PosxNode":"438582","PosyNode":"4473208","Name":"VIA CARPETANA-Pº ERMITA DEL SANTO","Lines":"17/2 516/2","Loc":{"Latitude":40.40722237584764,"Longitude":-3.7238348964190595}},{"Node":"593","PosxNode":"439718","PosyNode":"4473250","Name":"TOLEDO-PUERTA DE TOLEDO","Lines":"17/2 18/2 23/2 35/2 41/2 516/2 526/2","Loc":{"Latitude":40.40768376529402,"Longitude":-3.710451660521373}},{"Node":"594","PosxNode":"439682,9","PosyNode":"4473280","Name":"TOLEDO-PUERTA DE TOLEDO","Lines":"18/1 23/1 35/1 526/1","Loc":{"Latitude":40.40795147703897,"Longitude":-3.7108681437908064}},{"Node":"598","PosxNode":"435331","PosyNode":"4470584","Name":"VIDAUBA Nº 14","Lines":"155/2","Loc":{"Latitude":40.38333817809171,"Longitude":-3.7618795717937052}},{"Node":"599","PosxNode":"439516","PosyNode":"4474986","Name":"CTA.SAN VICENTE-CADARSO","Lines":"25/1 39/1 46/1 69/1 75/1 138/1 518/1 519/1 520/1","Loc":{"Latitude":40.423307791973215,"Longitude":-3.7129972123367794}},{"Node":"600","PosxNode":"439580,5","PosyNode":"4474994","Name":"CTA.SAN VICENTE-CADARSO","Lines":"25/2 39/2 46/2 68/2 75/2 138/2 518/2 519/2 520/2","Loc":{"Latitude":40.42338454581063,"Longitude":-3.7122376896205096}},