{"TABLA":{"RESULTADO":"0","DESCRIPCION":"Resultado de la operacion Correcta","REG":[{"Node":"1","Name":"AV.VALDEMARIN-ALTAIR","Lines":"161/1","Latitude":40.471927154758816,"Longitude":-3.7816069726093966},{"Node":"2","Name":"AV.VALDEMARIN-LA SALLE","Lines":"161/1","Latitude":40.470455874798326,"Longitude":-3.784682905907917},{"Node":"3","Name":"BLANCA DE CASTILLA-Cº DE LA ZARZUELA","Lines":"161/1","Latitude":40.46674043950265,"Longitude":-3.7825789607042513},{"Node":"4","Name":"PLEYADES-ANA TERESA","Lines":"161/1","Latitude":40.46322531126303,"Longitude":-3.7828212442963105},{"Node":"5","Name":"PLEYADES-AV.OSA MAYOR","Lines":"161/1","Latitude":40.46122401247942,"Longitude":-3.7830150339024233},{"Node":"6","Name":"BLANCA DE CASTILLA-Cº DE LA ZARZUELA","Lines":"161/2","Latitude":40.46676916491374,"Longitude":-3.7823280464882396},{"Node":"7","Name":"AV.VALDEMARIN-LA SALLE","Lines":"161/2","Latitude":40.470241334847294,"Longitude":-3.7844362258723727},{"Node":"8","Name":"AV.VALDEMARIN-BLANCA DE CASTILLA","Lines":"161/2","Latitude":40.471698282575055,"Longitude":-3.7808139515436125},{"Node":"11","Name":"AV.BURGOS-BUGANVILLA","Lines":"14/1","Latitude":40.47343937125706,"Longitude":-3.6745503577849146},{"Node":"12","Name":"AV.NUESTRA SRA.DE BEGOÑA-LASARTE","Lines":"162/1","Latitude":40.4716704618382,"Longitude":-3.808446968184839},{"Node":"13","Name":"GUECHO-GOBELAS","Lines":"162/1","Latitude":40.47283877084594,"Longitude":-3.8165417281981964},{"Node":"14","Name":"GUECHO-GOBELAS","Lines":"162/1","Latitude":40.47287655319485,"Longitude":-3.8162944548229865},{"Node":"16","Name":"AV.VICTORIA-PADRE HUIDOBRO","Lines":"162/1","Latitude":40.468718334534756,"Longitude":-3.8119031793717495},{"Node":"18","Name":"AV.VICTORIA-PADRE HUIDOBRO","Lines":"162/2","Latitude":40.4689856788062,"Longitude":-3.812319260387283},{"Node":"19","Name":"ACCESO A LA A6-AV.VICTORIA","Lines":"162/2","Latitude":40.47092087121981,"Longitude":-3.81767454115769},{"Node":"20","Name":"GOBELAS-GUECHO","Lines":"162/2","Latitude":40.47228501367318,"Longitude":-3.815862613262223},{"Node":"21","Name":"MOTRICO-LEQUEITIO","Lines":"162/2","Latitude":40.47112376252225,"Longitude":-3.8118967607386565},{"Node":"22","Name":"AMOREBIETA-AV.NUESTRA SRA.DE BEGOÑA","Lines":"162/2","Latitude":40.470783369523225,"Longitude":-3.80904973986147},{"Node":"23","Name":"ESCUELA UNIVERSITARIA DE ESTADISTICA","Lines":"83/2 133/2 162/2","Latitude":40.4499744005115,"Longitude":-3.734588472046475},{"Node":"24","Name":"GTA.MAR DE CRISTAL","Lines":"125/1 125/2 172/1 172/2 372/1 372/2","Latitude":40.47129529574987,"Longitude":-3.6364143845777708},{"Node":"28","Name":"Pº CASTELLANA-JUZGADOS","Lines":"5/2 27/2 147/2 522/2 524/2","Latitude":40.46684392998733,"Longitude":-3.688450498532742},{"Node":"29","Name":"Pº CASTELLANA-JUZGADOS","Lines":"5/1 27/1 147/1 522/1 524/1","Latitude":40.46691015617168,"Longitude":-3.687919187425839},{"Node":"30","Name":"MATEO INURRIA-PZA.DE CASTILLA","Lines":"5/1 70/1 107/1 129/1","Latitude":40.46802456852617,"Longitude":-3.6868583088489286},{"Node":"31","Name":"MATEO INURRIA-PZA.DE CASTILLA","Lines":"5/2 66/2 70/2 107/2 129/2 174/2","Latitude":40.468248657453394,"Longitude":-3.687049327255784},{"Node":"32","Name":"Pº CASTELLANA-ROSARIO PINO","Lines":"5/2 27/2 147/2 522/2 524/2","Latitude":40.463662178472994,"Longitude":-3.688716429661058},{"Node":"33","Name":"Pº CASTELLANA-ROSARIO PINO","Lines":"5/1 27/1 147/1 522/1 524/1","Latitude":40.46363787900919,"Longitude":-3.6882585294303394},{"Node":"34","Name":"PZA.DE CUZCO","Lines":"5/2 27/2 40/2 147/2 522/2 524/2","Latitude":40.46011069949503,"Longitude":-3.689042250995731},{"Node":"35","Name":"PZA.DE CUZCO","Lines":"5/1 27/1 147/1 522/1 524/1","Latitude":40.46168182078222,"Longitude":-3.688444974085759},{"Node":"36","Name":"Pº CASTELLANA-GRAL.YAGUE","Lines":"5/2 27/2 40/2 147/2 522/2 524/2","Latitude":40.4583979933787,"Longitude":-3.6892099219210692},{"Node":"37","Name":"Pº CASTELLANA-GRAL.YAGUE","Lines":"27/1 40/1 126/1 147/1 522/1 524/1","Latitude":40.45755336572563,"Longitude":-3.6888380326345995},{"Node":"38","Name":"Pº CASTELLANA-RAFAEL SALGADO","Lines":"27/2 40/2 126/2 147/2","Latitude":40.456378704332465,"Longitude":-3.689423985670967},{"Node":"39","Name":"Pº CASTELLANA-RAFAEL SALGADO","Lines":"27/1 40/1 126/1 147/1","Latitude":40.456372487373564,"Longitude":-3.688955704905549},{"Node":"40","Name":"SAN ROMUALDO-JULIAN CAMARILLO","Lines":"105/1","Latitude":40.439395326668624,"Longitude":-3.619663928199859},{"Node":"41","Name":"Pº CASTELLANA-PZA.DE LIMA","Lines":"14/2 27/2 40/2 126/2 147/2 150/2 522/2 524/2","Latitude":40.45329545437268,"Longitude":-3.6897887285158895},{"Node":"42","Name":"Pº CASTELLANA-PZA.DE LIMA","Lines":"27/1 40/1 126/1 147/1 150/1 522/1 524/1","Latitude":40.453307719703,"Longitude":-3.6892428219048568},{"Node":"44","Name":"Pº CASTELLANA-PZA.DE LIMA","Lines":"27/1 40/1 126/1 147/1 150/1","Latitude":40.45491222053174,"Longitude":-3.68909174765103},{"Node":"45","Name":"PZA.DE LIMA","Lines":"120/1 120/2","Latitude":40.45342553957178,"Longitude":-3.6891249127499814},{"Node":"46","Name":"Pº CASTELLANA-AZCA","Lines":"14/2 27/2 40/2 126/2 147/2 150/2 522/2 524/2","Latitude":40.4512135611587,"Longitude":-3.689925466186818},{"Node":"47","Name":"Pº CASTELLANA-AZCA","Lines":"27/1 40/1 126/1 147/1 150/1 522/1 524/1","Latitude":40.451171248850954,"Longitude":-3.689467466022842},{"Node":"48","Name":"Pº CASTELLANA-RAIMUNDO F.VILLAVERDE","Lines":"14/2 27/2 40/2 147/2 150/2","Latitude":40.44839197474639,"Longitude":-3.69022208384154},{"Node":"49","Name":"Pº CASTELLANA-NUEVOS MINISTERIOS","Lines":"7/2 14/2 27/2 40/2 147/2 150/2 522/2 524/2","Latitude":40.44719259768089,"Longitude":-3.690419716397723},{"Node":"50","Name":"Pº CASTELLANA-Pº DE LA HABANA","Lines":"27/1 40/1 126/1 147/1 150/1 522/1 524/1","Latitude":40.4486561687972,"Longitude":-3.689730679511125},{"Node":"51","Name":"Pº CASTELLANA-NUEVOS MINISTERIOS","Lines":"7/2 14/2 27/2 40/2 147/2 150/2 522/2 524/2","Latitude":40.44587651878785,"Longitude":-3.690547753833611},{"Node":"52","Name":"Pº CASTELLANA-JORGE MANRIQUE","Lines":"7/1 14/1 27/1 40/1 147/1 150/1 522/1 524/1","Latitude":40.445565235954405,"Longitude":-3.6898724243236827},{"Node":"53","Name":"PZA.SAN JUAN DE LA CRUZ","Lines":"7/2 14/2 27/2 40/2 147/2 150/2 522/2 524/2","Latitude":40.442811249317415,"Longitude":-3.690917296065035},{"Node":"54","Name":"PZA.SAN JUAN DE LA CRUZ","Lines":"7/1 14/1 27/1 40/1 147/1 150/1 522/1 524/1","Latitude":40.44295130619863,"Longitude":-3.690093322459376},{"Node":"56","Name":"PZA.DOCTOR MARAÑON","Lines":"7/1 14/1 27/1 40/1 147/1 150/1 522/1 524/1","Latitude":40.440182313487135,"Longitude":-3.6891240805193384},{"Node":"57","Name":"GTA.EMILIO CASTELAR","Lines":"5/2 14/2 27/2 45/2 150/2 501/2 522/2 524/2","Latitude":40.43680169612381,"Longitude":-3.6879871543112133},{"Node":"58","Name":"GTA.EMILIO CASTELAR","Lines":"7/1 16/1 40/1 147/1","Latitude":40.43757991023752,"Longitude":-3.6874090942110276},{"Node":"59","Name":"Pº CASTELLANA-Pº EDUARDO DATO","Lines":"5/2 14/2 27/2 45/2 150/2 501/2 522/2 524/2","Latitude":40.43480438945343,"Longitude":-3.6875340989395697},{"Node":"60","Name":"Pº CASTELLANA-Pº EDUARDO DATO","Lines":"5/1 14/1 27/1 45/1 150/1 501/1 522/1 524/1","Latitude":40.435033981152586,"Longitude":-3.6867995528165203},{"Node":"61","Name":"Pº CASTELLANA-MINISTERIO INTERIOR","Lines":"5/2 14/2 27/2 45/2 150/2 501/2 522/2 524/2 525/1 526/1","Latitude":40.43096060433522,"Longitude":-3.688532421469707},{"Node":"62","Name":"Pº CASTELLANA-MQUES.VILLAMAGNA","Lines":"5/1 14/1 27/1 45/1 150/1 501/1 522/1 524/1","Latitude":40.43104607350376,"Longitude":-3.687795273082695},{"Node":"63","Name":"Pº CASTELLANA-PZA.DE COLON","Lines":"5/2 14/2 27/2 45/2 150/2 501/2 522/2 524/2 525/1 526/1","Latitude":40.427694469576316,"Longitude":-3.6893490897462704},{"Node":"65","Name":"Pº RECOLETOS-BIBLIOTECA NACIONAL","Lines":"5/1 14/1 27/1 45/1 53/1 150/1 501/1 504/1 522/1 523/1 524/1 525/2 526/2","Latitude":40.42566805983591,"Longitude":-3.6892447022874735},{"Node":"66","Name":"Pº CASTELLANA-PZA.DE COLON","Lines":"5/1 14/1 27/1 45/1 150/1 501/1 522/1 524/1","Latitude":40.427915162218525,"Longitude":-3.6885980316250535},{"Node":"68","Name":"Pº RECOLETOS-BARBARA DE BRAGANZA","Lines":"5/2 14/2 27/2 37/1 45/2 53/2 150/2","Latitude":40.424680122095324,"Longitude":-3.690242521370866},{"Node":"69","Name":"PZA.DE CIBELES","Lines":"1/2 2/1 9/2 15/2 20/2 51/2 52/2 53/2 74/2 146/2 203/2 516/1 516/2 517/1 517/2 518/1 518/2 519/1 519/2","Latitude":40.42157798395294,"Longitude":-3.6922559967798554},{"Node":"70","Name":"PZA.DE CIBELES","Lines":"1/1 2/2 9/1 15/1 20/1 51/1 52/1 74/1 146/1 505/1 505/2 506/1 506/2 507/1 507/2","Latitude":40.42093928470348,"Longitude":-3.692098567102215},{"Node":"71","Name":"Pº PRADO-PZA.DE CIBELES","Lines":"502/1 502/2 503/1 503/2","Latitude":40.42059236131603,"Longitude":-3.691358284709908},{"Node":"72","Name":"Pº RECOLETOS-PZA.DE CIBELES","Lines":"5/1 14/1 27/1 37/2 45/1 53/1 150/1 501/1 501/2 504/1 504/2 522/1 522/2 524/1 524/2 525/2 526/2","Latitude":40.4221448440366,"Longitude":-3.6908684776285083},{"Node":"73","Name":"Pº RECOLETOS-PZA.DE CIBELES","Lines":"5/2 14/2 27/2 37/1 45/2 150/2 523/1 523/2 525/1 526/1","Latitude":40.42202377328109,"Longitude":-3.6915297179631126},{"Node":"74","Name":"PZA.DE CIBELES-Pº DEL PRADO","Lines":"34/1 34/2","Latitude":40.42082240721292,"Longitude":-3.692058469974059},{"Node":"76","Name":"Pº PRADO-BANCO DE ESPAÑA","Lines":"14/2 27/2 37/1 45/2","Latitude":40.41960975593974,"Longitude":-3.6929666439442546},{"Node":"77","Name":"PZA.CANOVAS DEL CASTILLO","Lines":"14/2 27/2 34/1 37/1 45/2 509/1 510/1 511/1 512/1 513/1 514/1 515/1 517/1 525/1 526/1","Latitude":40.416913567717465,"Longitude":-3.693380992776757},{"Node":"78","Name":"PZA.CANOVAS DEL CASTILLO","Lines":"14/1 27/1 34/2 37/2 45/1 509/2 510/2 511/2 512/2 513/2 514/2 515/2 517/2 525/2","Latitude":40.41742641109387,"Longitude":-3.6919894888424953},{"Node":"79","Name":"Pº PRADO-PZA.PLATERIA MTNEZ.","Lines":"14/2 27/2 34/1 37/1 45/2 509/1 510/1 511/1 512/1 513/1 514/1 515/1 517/1 525/1 526/1","Latitude":40.41415514919376,"Longitude":-3.692152810346451},{"Node":"81","Name":"Pº PRADO-ATOCHA","Lines":"14/2 27/2 34/1 37/1 45/2 509/1 510/1 511/1 512/1 513/1 514/1 515/1 517/1 525/1","Latitude":40.4117094839886,"Longitude":-3.6913510488751102},{"Node":"82","Name":"Pº PRADO-ATOCHA","Lines":"14/1 27/1 34/2 37/2 45/1 509/2 510/2 511/2 512/2 513/2 514/2 515/2 517/2 525/2","Latitude":40.411847302651964,"Longitude":-3.690902230078235},{"Node":"83","Name":"PZA.EMPERADOR CARLOS V","Lines":"27/2 34/1 68/1 512/1 515/1 517/1","Latitude":40.40955955068295,"Longitude":-3.692316689758069},{"Node":"84","Name":"RONDA DE ATOCHA","Lines":"27/2 34/1 36/1 41/1 68/1 119/1 512/1 515/1 517/1","Latitude":40.408077960629825,"Longitude":-3.697496532544255},{"Node":"85","Name":"RONDA DE ATOCHA-TEATRO CIRCO PRICE","Lines":"27/1 34/2 36/2 41/2 69/2 119/2 512/2 515/2 517/2","Latitude":40.40777098920051,"Longitude":-3.6976065032545744},{"Node":"86","Name":"GTA.EMBAJADORES","Lines":"27/1 27/2","Latitude":40.407218074796425,"Longitude":-3.7011410969531244},{"Node":"87","Name":"JOSE ANTONIO ARMONA-Pº STA.Mª CABEZA","Lines":"27/1","Latitude":40.40626136679505,"Longitude":-3.6954637008803104},{"Node":"88","Name":"DELICIAS Nº 14","Lines":"27/1","Latitude":40.40598095018122,"Longitude":-3.692651251233981},{"Node":"89","Name":"Pº DELICIAS-TORTOSA","Lines":"6/2 19/2 27/1 45/1 513/2 514/2","Latitude":40.40844500733041,"Longitude":-3.691885704513732},{"Node":"90","Name":"ALCALA-CIRCULO DE BELLAS ARTES","Lines":"5/1 9/1 51/1 52/1 53/1 146/1 150/1","Latitude":40.42045459715365,"Longitude":-3.6948023919819546},{"Node":"92","Name":"MENDEZ ALVARO-EST.SUR DE AUTOBUSES","Lines":"102/2 148/2","Latitude":40.39557135847487,"Longitude":-3.6766088744644247},{"Node":"93","Name":"MONFORTE DE LEMOS-LA VAGUADA","Lines":"49/2 83/2 132/2 137/2","Latitude":40.48094935704959,"Longitude":-3.7053173242762396},{"Node":"96","Name":"CONCHA ESPINA-PZA.SAGRADOS CORAZONES","Lines":"14/2 150/2","Latitude":40.453880031015835,"Longitude":-3.6854146193889483},{"Node":"97","Name":"PADRE DAMIAN-RAFAEL SALGADO","Lines":"150/2","Latitude":40.45658849507839,"Longitude":-3.685961075538538},{"Node":"98","Name":"PADRE DAMIAN-RAFAEL SALGADO","Lines":"150/1","Latitude":40.45659902891361,"Longitude":-3.6857040750957784},{"Node":"99","Name":"PADRE DAMIAN-JOSE L.GALDIANO","Lines":"150/2","Latitude":40.45939862925539,"Longitude":-3.6845542774554456},{"Node":"100","Name":"PADRE DAMIAN-JOSE L.GALDIANO","Lines":"150/1","Latitude":40.4592560374831,"Longitude":-3.6842921740363175},{"Node":"101","Name":"PADRE DAMIAN-ALBERTO ALCOCER","Lines":"150/2","Latitude":40.46132769942907,"Longitude":-3.6843603745416567},{"Node":"102","Name":"PADRE DAMIAN-ALBERTO ALCOCER","Lines":"150/1","Latitude":40.46095977767401,"Longitude":-3.684116029109368},{"Node":"103","Name":"PADRE DAMIAN-PEDRO MUGURUZA","Lines":"150/2","Latitude":40.46368949475626,"Longitude":-3.6841165941132523},{"Node":"104","Name":"PADRE DAMIAN-PEDRO MUGURUZA","Lines":"150/1","Latitude":40.46336656602836,"Longitude":-3.6838809541591266},{"Node":"105","Name":"FRAY.B.SAHAGUN-PZA.M.MOLAS","Lines":"150/2","Latitude":40.46449621279311,"Longitude":-3.6832849530293097},{"Node":"106","Name":"FRAY.B.SAHAGUN-PZA.M.MOLAS","Lines":"150/1","Latitude":40.46415424780077,"Longitude":-3.6832213319637948},{"Node":"107","Name":"FRAY.B.SAHAGUN-MENENDEZ PIDAL","Lines":"150/2","Latitude":40.46305035599274,"Longitude":-3.680980881602535},{"Node":"108","Name":"FRAY B.SAHAGUN-MENENDEZ PIDAL","Lines":"150/1","Latitude":40.462807239225114,"Longitude":-3.6809595543868596},{"Node":"109","Name":"ALFONSO XIII-PZA.PRESIDENTE CARDENAS","Lines":"150/2","Latitude":40.462250123059704,"Longitude":-3.679183511513102},{"Node":"110","Name":"ALFONSO XIII-PZA.PRESIDENTE CARDENAS","Lines":"150/1","Latitude":40.4620702105282,"Longitude":-3.6791380583771076},{"Node":"111","Name":"AV.PIO XII-PZA.PERU","Lines":"16/2 29/2","Latitude":40.46264132959298,"Longitude":-3.675456697781891},{"Node":"112","Name":"AV.PIO XII-PZA.PERU","Lines":"16/1 29/1 150/1 501/1","Latitude":40.462697585204,"Longitude":-3.6750798214013525},{"Node":"113","Name":"PZA.DEL PERU","Lines":"51/1 51/2","Latitude":40.46200055756574,"Longitude":-3.675650792254768},{"Node":"114","Name":"AV.PIO XII Nº 21","Lines":"16/2 29/2 150/2 501/2","Latitude":40.46438251710887,"Longitude":-3.67503653439522},{"Node":"115","Name":"AV.PIO XII-CENTRO COMERCIAL","Lines":"16/1 29/1 150/1 501/1","Latitude":40.46433013298051,"Longitude":-3.674750564141037},{"Node":"116","Name":"AV.PIO XII-COMANDANTE FRANCO","Lines":"16/2 29/2 150/2 501/2","Latitude":40.466989374254126,"Longitude":-3.674477564802741},{"Node":"117","Name":"AV.PIO XII-COMANDANTE FRANCO","Lines":"16/1 29/1 150/1 501/1","Latitude":40.467351934717925,"Longitude":-3.6741001871339036},{"Node":"118","Name":"AV.PIO XII-NUNCIATURA","Lines":"16/2 150/2","Latitude":40.47045145836526,"Longitude":-3.6724785105493005},{"Node":"119","Name":"AV.PIO XII-NUNCIATURA","Lines":"16/1 150/1","Latitude":40.47011889381474,"Longitude":-3.6723466134845872},{"Node":"120","Name":"AV.PIO XII-MARQUES DE TORROJA","Lines":"150/2","Latitude":40.47264269924139,"Longitude":-3.6721240543394478},{"Node":"123","Name":"BAMBU-AV.PIO XII","Lines":"129/2 150/2 174/2","Latitude":40.47591610390054,"Longitude":-3.676217329973719},{"Node":"124","Name":"BAMBU-YUCA","Lines":"129/2 150/2 174/2","Latitude":40.47866104589001,"Longitude":-3.67515357580807},{"Node":"125","Name":"AV.BURGOS Nº 30","Lines":"129/2 150/2 174/2","Latitude":40.481277464255015,"Longitude":-3.674499029902471},{"Node":"126","Name":"AV.BURGOS Nº 30","Lines":"129/1 150/1","Latitude":40.481017803127294,"Longitude":-3.6742250722429763},{"Node":"127","Name":"AV.SAN LUIS-AV.BURGOS","Lines":"129/2 150/2","Latitude":40.48278496836253,"Longitude":-3.6739831863549144},{"Node":"128","Name":"AV.SAN LUIS-AV.BURGOS","Lines":"129/1 150/1","Latitude":40.48242640598888,"Longitude":-3.673675200001956},{"Node":"129","Name":"AV.SAN LUIS-CONDADO DE TREVIÑO","Lines":"129/2 150/2","Latitude":40.48137074898045,"Longitude":-3.6708542995703604},{"Node":"130","Name":"AV.SAN LUIS-CONDADO DE TREVIÑO","Lines":"129/1 150/1","Latitude":40.48158425919957,"Longitude":-3.6713200984389784},{"Node":"131","Name":"AV.SAN LUIS-SERRANO GALVACHE","Lines":"129/2 150/2","Latitude":40.479657499009825,"Longitude":-3.66956778342585},{"Node":"132","Name":"AV.SAN LUIS-SERRANO GALVACHE","Lines":"129/1 150/1","Latitude":40.47926072450205,"Longitude":-3.669633448918394},{"Node":"133","Name":"ARTURO SORIA-AV.SAN LUIS","Lines":"29/2 129/2 150/2","Latitude":40.47868645773118,"Longitude":-3.6676775670575568},{"Node":"134","Name":"ARTURO SORIA-AV.SAN LUIS","Lines":"29/1 125/1 129/1 150/1","Latitude":40.47862591937181,"Longitude":-3.6672404491842148},{"Node":"135","Name":"ARTURO SORIA Nº 315","Lines":"29/2 125/2 129/2 150/2","Latitude":40.48102232143095,"Longitude":-3.6672370404818277},{"Node":"136","Name":"ARTURO SORIA-CULTURA","Lines":"29/1 125/1 129/1 150/1","Latitude":40.480356153157516,"Longitude":-3.6671513974181877},{"Node":"137","Name":"ARTURO SORIA Nº 329","Lines":"125/2 129/2 150/2 501/2","Latitude":40.482290831476995,"Longitude":-3.6659789100591764},{"Node":"138","Name":"ARTURO SORIA-DALIA","Lines":"125/1 129/1 150/1","Latitude":40.48193942073356,"Longitude":-3.6659895950921757},{"Node":"139","Name":"ARTURO SORIA-AV.MANUEL AZAÑA","Lines":"125/2 129/2 150/2 501/2","Latitude":40.484412243851345,"Longitude":-3.663663714755691},{"Node":"140","Name":"ARTURO SORIA-AV.MANUEL AZAÑA","Lines":"125/1 129/1 150/1","Latitude":40.48420721703443,"Longitude":-3.6632841348485554},{"Node":"145","Name":"AV.BURGOS Nº 16","Lines":"129/1 150/1","Latitude":40.47694337709634,"Longitude":-3.674632616130716},{"Node":"146","Name":"AV.BURGOS-AV.PIO XII","Lines":"129/1 150/1","Latitude":40.47493561849285,"Longitude":-3.674420226798126},{"Node":"147","Name":"PZA.MANUEL BECERRA-FCO.SILVELA","Lines":"143/1 143/2 156/1 156/2","Latitude":40.430396985792584,"Longitude":-3.6678953119190187},{"Node":"148","Name":"DR.ESQUERDO-HERMOSILLA","Lines":"2/1 56/1 68/1 71/1 143/1 156/1","Latitude":40.4270381014301,"Longitude":-3.66763809754174},{"Node":"149","Name":"DR.ESQUERDO-FUNDADORES","Lines":"2/2 56/2 69/2 71/2 143/2 156/2","Latitude":40.42668010153197,"Longitude":-3.6672290261128664},{"Node":"150","Name":"DR.ESQUERDO-O DONNELL","Lines":"2/1 30/1 56/1 71/1 143/1 156/1","Latitude":40.42381127905946,"Longitude":-3.6679126854323028},{"Node":"151","Name":"DR.ESQUERDO-JORGE JUAN","Lines":"2/2 30/2 56/2 71/2 143/2 156/2","Latitude":40.42455276938916,"Longitude":-3.6674366982254347},{"Node":"152","Name":"O DONNELL-DR.ESQUERDO","Lines":"28/2 506/2","Latitude":40.4232238175352,"Longitude":-3.6682369415790785},{"Node":"153","Name":"O DONNELL-DR.ESQUERDO","Lines":"28/1 203/1 402/1 403/1 506/1 527/1","Latitude":40.42297157874424,"Longitude":-3.668234445467113},{"Node":"154","Name":"O DONNELL-MAIQUEZ","Lines":"28/2","Latitude":40.4233921606905,"Longitude":-3.6718339869042453},{"Node":"155","Name":"O DONNELL-MAIQUEZ","Lines":"28/1","Latitude":40.423121768052724,"Longitude":-3.6718548728880602},{"Node":"156","Name":"O DONNELL-NARVAEZ","Lines":"2/1 28/2 506/2","Latitude":40.42355324217303,"Longitude":-3.675112696916658},{"Node":"157","Name":"O DONNELL-NARVAEZ","Lines":"2/2 28/1 506/1","Latitude":40.423300590740546,"Longitude":-3.675180899631349},{"Node":"158","Name":"O DONNELL-AV.MENENDEZ PELAYO","Lines":"2/1 20/2 28/2 506/2 508/2","Latitude":40.42354771751709,"Longitude":-3.679132402065124},{"Node":"159","Name":"O DONNELL-AV.MENENDEZ PELAYO","Lines":"20/1 508/1","Latitude":40.423275523059075,"Longitude":-3.679459731469428},{"Node":"161","Name":"PUERTA DE ALCALA","Lines":"1/2 2/1 9/2 15/2 20/2 51/2 52/2 74/2 146/2 504/2 505/2 506/2 507/2","Latitude":40.42246876049728,"Longitude":-3.6879153710766173},{"Node":"162","Name":"PUERTA DE ALCALA","Lines":"1/1 2/2 9/1 15/1 19/2 20/1 51/1 52/1 74/1 146/1 502/1 503/1 505/1 506/1 507/1 508/1","Latitude":40.42148329999829,"Longitude":-3.6869847060458616},{"Node":"163","Name":"PUERTA DE ALCALA","Lines":"28/1 28/2","Latitude":40.42236471042335,"Longitude":-3.687232968012267},{"Node":"164","Name":"GRAN VIA-ALCALA","Lines":"1/1 2/2 46/2 74/1 146/1 602/2","Latitude":40.420745468591164,"Longitude":-3.6958709887908983},{"Node":"166","Name":"GRAN VIA-TRES CRUCES","Lines":"1/2 2/1 46/1 74/2 146/2 516/1 518/1 519/1 520/1 521/1","Latitude":40.42213975911665,"Longitude":-3.7021800945273653},{"Node":"167","Name":"GRAN VIA-SALUD","Lines":"1/1 2/2 46/2 74/1 146/1 518/2 519/2 520/2 521/2","Latitude":40.421853019935426,"Longitude":-3.701924853033624},{"Node":"168","Name":"GRAN VIA-SAN BERNARDO","Lines":"1/2 2/1 44/1 46/1 74/2 75/1 133/1 147/1 148/1 516/1 518/1 519/1 520/1 521/1","Latitude":40.42317059126717,"Longitude":-3.7059936472444313},{"Node":"169","Name":"GRAN VIA-SAN BERNARDO","Lines":"1/1 2/2 46/2 74/1 146/1 518/2 519/2 520/2 521/2","Latitude":40.42292621110377,"Longitude":-3.7061797007857615},{"Node":"170","Name":"GRAN VIA-PZA.ESPAÑA","Lines":"1/2 2/1 3/2 44/1 46/1 74/2 75/1 133/1 148/1 516/1 518/1 519/1 520/1 521/1","Latitude":40.42477733124831,"Longitude":-3.7084270595242157},{"Node":"171","Name":"GRAN VIA-PZA.ESPAÑA","Lines":"1/1 2/2 46/2 74/1 518/2 519/2 520/2 521/2","Latitude":40.42483540361672,"Longitude":-3.709241066038031},{"Node":"172","Name":"PRINCESA-VENTURA RODRIGUEZ","Lines":"1/2 2/1 44/1 68/2 133/1 521/1","Latitude":40.427777209013264,"Longitude":-3.711382177710349},{"Node":"173","Name":"PRINCESA-VENTURA RODRIGUEZ","Lines":"1/1 2/2 44/2 69/1 74/1 133/2 521/2","Latitude":40.42784637410728,"Longitude":-3.7118544620902654},{"Node":"174","Name":"ALCALA-LAGASCA","Lines":"2/2 20/1 28/1","Latitude":40.422308746826346,"Longitude":-3.6845176373096957},{"Node":"175","Name":"MARTIRES DE ALCALA-PRINCESA","Lines":"2/1","Latitude":40.429591324204864,"Longitude":-3.712309061191451},{"Node":"176","Name":"BLASCO DE GARAY-ALBERTO AGUILERA","Lines":"2/1","Latitude":40.432323477820724,"Longitude":-3.7104515425495377},{"Node":"177","Name":"BLASCO DE GARAY Nº 40","Lines":"2/1","Latitude":40.43579353481668,"Longitude":-3.7101933093940667},{"Node":"180","Name":"VALLEHERMOSO Nº 112","Lines":"2/1","Latitude":40.44230106974103,"Longitude":-3.706758562778906},{"Node":"181","Name":"JUAN VIGON Nº 23","Lines":"2/1","Latitude":40.44437025599094,"Longitude":-3.708701116285264},{"Node":"182","Name":"JUAN VIGON-GUZMAN EL BUENO","Lines":"2/1","Latitude":40.44322033709952,"Longitude":-3.7111086705489846},{"Node":"183","Name":"GRAL.AMPUDIA Nº 8","Lines":"2/1","Latitude":40.4442130309554,"Longitude":-3.7137557672850456},{"Node":"184","Name":"GRAL.AMPUDIA Nº 18","Lines":"2/1","Latitude":40.44542894030047,"Longitude":-3.7138051845482565},{"Node":"185","Name":"AV.REINA VICTORIA-GRAL.RODRIGO","Lines":"2/1 68/2 91/2","Latitude":40.4476415227173,"Longitude":-3.7129335537652772},{"Node":"186","Name":"GUZMAN EL BUENO Nº 139","Lines":"2/1 2/2","Latitude":40.44769764114531,"Longitude":-3.7111358120830906},{"Node":"187","Name":"GUZMAN EL BUENO-SAN FRANCISCO DE SALES","Lines":"2/2","Latitude":40.44475021499869,"Longitude":-3.7113771389574284},{"Node":"188","Name":"GUZMAN EL BUENO-JUAN VIGON","Lines":"2/2 12/1","Latitude":40.44342484615858,"Longitude":-3.7115471153867285},{"Node":"189","Name":"GUZMAN EL BUENO-CEA BERMUDEZ","Lines":"2/2","Latitude":40.440594824342014,"Longitude":-3.7117413064775424},{"Node":"190","Name":"GUZMAN EL BUENO-FERNANDEZ DE LOS RIOS","Lines":"2/2","Latitude":40.437692610145284,"Longitude":-3.7119547655380525},{"Node":"191","Name":"GUZMAN EL BUENO-MELENDEZ VALDES","Lines":"2/2","Latitude":40.43539414037549,"Longitude":-3.7121451026715273},{"Node":"192","Name":"GUZMAN EL BUENO-ALBERTO AGUILERA","Lines":"2/2","Latitude":40.43284336810142,"Longitude":-3.7123433763202023},{"Node":"193","Name":"PRINCESA Nº 29","Lines":"1/1 2/2 44/2 69/1 133/2","Latitude":40.42977468676681,"Longitude":-3.7132541339902905},{"Node":"194","Name":"AV.MENENDEZ PELAYO-MENORCA","Lines":"20/2 152/2 508/2","Latitude":40.42164497651751,"Longitude":-3.677909729892718},{"Node":"195","Name":"AV.MENENDEZ PELAYO-MENORCA","Lines":"20/1 152/1 508/1","Latitude":40.42146370719288,"Longitude":-3.678095336065201},{"Node":"196","Name":"SAINZ DE BARANDA Nº 10","Lines":"508/1","Latitude":40.41875533170644,"Longitude":-3.6759853234637556},{"Node":"197","Name":"IBIZA-NARVAEZ","Lines":"508/2","Latitude":40.42030027257155,"Longitude":-3.675233415540768},{"Node":"199","Name":"IBIZA-MAIQUEZ","Lines":"2/1 508/2","Latitude":40.42013292388855,"Longitude":-3.671483298572582},{"Node":"203","Name":"MATEO INURRIA-ENRIQUE LARRETA","Lines":"70/1 107/1 129/1","Latitude":40.468736045123435,"Longitude":-3.6838587445303195},{"Node":"204","Name":"MATEO INURRIA-ENRIQUE LARRETA","Lines":"70/2 107/2 129/2 174/2","Latitude":40.46876036871005,"Longitude":-3.6843154985369773},{"Node":"205","Name":"MATEO INURRIA-AV.RECUERDO","Lines":"70/1 107/1 129/1","Latitude":40.46926173289173,"Longitude":-3.6802686128321294},{"Node":"206","Name":"MATEO INURRIA-AV.RECUERDO","Lines":"70/2 107/2 129/2 174/2","Latitude":40.46945315172562,"Longitude":-3.6798895278621098},{"Node":"207","Name":"MATEO INURRIA-Pº HABANA","Lines":"70/1 107/1 129/1","Latitude":40.46941719542659,"Longitude":-3.678342687282611},{"Node":"208","Name":"CAIDOS DIVISION AZUL-AV.PIO XII","Lines":"70/1 107/1","Latitude":40.46921753616058,"Longitude":-3.6739725688672022},{"Node":"209","Name":"CAIDOS DIVISION AZUL-AV.PIO XII","Lines":"70/2 107/2","Latitude":40.46932609142827,"Longitude":-3.6738957994778927},{"Node":"210","Name":"CAIDOS DIVISION AZUL-CTE.FRANCO","Lines":"29/1 70/1 107/1 501/1","Latitude":40.46834029490069,"Longitude":-3.671455972836944},{"Node":"211","Name":"CAIDOS DIVISION AZUL-CTE.FRANCO","Lines":"29/2 70/2 107/2 501/2","Latitude":40.4686464451992,"Longitude":-3.6714826140388888},{"Node":"212","Name":"ARTURO SORIA-AÑASTRO","Lines":"7/2 70/1","Latitude":40.46835138511597,"Longitude":-3.6648621258357768},{"Node":"213","Name":"ARTURO SORIA-AÑASTRO","Lines":"70/2","Latitude":40.468389440335486,"Longitude":-3.664510980435509},{"Node":"214","Name":"ARTURO SORIA-AÑASTRO","Lines":"7/1 29/1 107/1 501/1","Latitude":40.46937936751876,"Longitude":-3.664695321191047},{"Node":"215","Name":"ARTURO SORIA-MANUEL URIBE","Lines":"7/2 70/1","Latitude":40.46483504002724,"Longitude":-3.663789458869545},{"Node":"216","Name":"ARTURO SORIA-MANUEL URIBE","Lines":"7/1 70/2","Latitude":40.46594328507705,"Longitude":-3.663764982632728},{"Node":"217","Name":"ARTURO SORIA Nº 212","Lines":"7/1 11/2 70/2","Latitude":40.46289628709779,"Longitude":-3.660963155080683},{"Node":"218","Name":"ARTURO SORIA-LOPEZ DE HOYOS","Lines":"9/2 11/1 70/1 72/2 73/2 502/2 503/2","Latitude":40.46134657697456,"Longitude":-3.6594146459396084},{"Node":"219","Name":"ARTURO SORIA-LOPEZ DE HOYOS","Lines":"11/2 70/2","Latitude":40.46099329561871,"Longitude":-3.658172747451608},{"Node":"220","Name":"ARTURO SORIA-CELESTE","Lines":"11/1 70/1 503/2","Latitude":40.45859869071598,"Longitude":-3.656274086222984},{"Node":"221","Name":"ARTURO SORIA-BELISANA","Lines":"11/2 70/2 503/1","Latitude":40.45893268123941,"Longitude":-3.6561582134001394},{"Node":"222","Name":"ARTURO SORIA-JEFATURA PROV.TRAFICO","Lines":"11/1 70/1 122/2 503/2","Latitude":40.45632220445356,"Longitude":-3.654192722179567},{"Node":"223","Name":"ARTURO SORIA Nº 164-LUIS CARLOS VAZQUEZ","Lines":"11/2 70/2 122/1 503/1","Latitude":40.45655704616761,"Longitude":-3.6540853164343226},{"Node":"224","Name":"ARTURO SORIA-MANUEL Mª IGLESIAS","Lines":"11/1 70/1 122/2 503/2","Latitude":40.45376720652895,"Longitude":-3.651968465040551},{"Node":"225","Name":"ARTURO SORIA-DIEGO AYLLON","Lines":"11/2 70/2 122/1 503/1","Latitude":40.45276411493807,"Longitude":-3.650918603735068},{"Node":"226","Name":"ARTURO SORIA-HOSPITAL NTRA.SRA.AMERICA","Lines":"11/1 70/1 503/2","Latitude":40.451578157077876,"Longitude":-3.650344631151517},{"Node":"227","Name":"ARTURO SORIA-HOSPITAL NTRA.SRA.AMERICA","Lines":"11/2 70/2 503/1","Latitude":40.450998105863555,"Longitude":-3.649360223516582},{"Node":"228","Name":"ARTURO SORIA-CONDESA DE VENADITO","Lines":"70/1","Latitude":40.448610585513684,"Longitude":-3.6477782689052733},{"Node":"229","Name":"ARTURO SORIA-JOSEFA VALCARCEL","Lines":"21/1 70/2 114/2 504/2","Latitude":40.44893540780472,"Longitude":-3.647689405442293},{"Node":"230","Name":"ARTURO SORIA-JUAN PEREZ ZUÑIGA","Lines":"70/1","Latitude":40.44662922510971,"Longitude":-3.64444327977101},{"Node":"231","Name":"ARTURO SORIA-JUAN PEREZ ZUÑIGA","Lines":"21/1 70/2","Latitude":40.44696297471155,"Longitude":-3.6443686386894836},{"Node":"232","Name":"ARTURO SORIA-MARQUES PICO VELASCO","Lines":"70/1","Latitude":40.44586429840501,"Longitude":-3.6426742392736116},{"Node":"233","Name":"ARTURO SORIA-MARQUES PICO VELASCO","Lines":"70/2","Latitude":40.44608998383624,"Longitude":-3.642591485774166},{"Node":"234","Name":"ARTURO SORIA-JOSE DEL HIERRO","Lines":"70/1","Latitude":40.44387912733442,"Longitude":-3.640001015673324},{"Node":"235","Name":"ARTURO SORIA-JOSE DEL HIERRO","Lines":"70/2","Latitude":40.443073745916855,"Longitude":-3.639019392662051},{"Node":"236","Name":"ARTURO SORIA-MARQUESA DE TORRECILLA","Lines":"48/1 70/1","Latitude":40.440406245668726,"Longitude":-3.637537931104864},{"Node":"237","Name":"ARTURO SORIA-MARQUESA DE TORRECILLA","Lines":"48/2 70/2","Latitude":40.44058888683999,"Longitude":-3.63709159300222},{"Node":"239","Name":"HNOS.GARCIA NOBLEJAS-ALCALA","Lines":"4/2 38/2 48/2 70/2 105/2","Latitude":40.43926081445726,"Longitude":-3.6361357827626253},{"Node":"240","Name":"HNOS.GARCIA NOBLEJAS-VITAL AZA","Lines":"4/1 38/1 48/1 70/1 105/1","Latitude":40.43674554574499,"Longitude":-3.6348151235879342},{"Node":"241","Name":"HNOS.GARCIA NOBLEJAS-VITAL AZA","Lines":"4/2 38/2 48/2 70/2 105/2","Latitude":40.43690957694469,"Longitude":-3.6344747417784142},{"Node":"242","Name":"HNOS.GARCIA NOBLEJAS-ASCAO","Lines":"4/1 38/1 48/1 70/1","Latitude":40.43440310228062,"Longitude":-3.6331896442850002},{"Node":"243","Name":"HNOS.GARCIA NOBLEJAS-JULIAN CAMARILLO","Lines":"4/2 38/2 48/2 70/2","Latitude":40.43435272950439,"Longitude":-3.63251713849155},{"Node":"244","Name":"HNOS.GARCIA NOBLEJAS-LUIS CAMPOS","Lines":"4/1 38/1 48/1 70/1 506/1","Latitude":40.43127174102571,"Longitude":-3.6308495268721135},{"Node":"245","Name":"HNOS.GARCIA NOBLEJAS-VALDECANILLAS","Lines":"4/2 38/2 48/2 70/2 506/2","Latitude":40.431310604697984,"Longitude":-3.6303311508675282},{"Node":"246","Name":"HNOS.GARCIA NOBLEJAS-CASTILLO DE AREVALO","Lines":"4/1 38/1 48/1 70/1","Latitude":40.429557784929756,"Longitude":-3.6296074319442275},{"Node":"247","Name":"HNOS.GARCIA NOBLEJAS-CASTILLO DE AREVALO","Lines":"4/2 38/2 48/2 70/2","Latitude":40.42990094574711,"Longitude":-3.62945737159418},{"Node":"248","Name":"HNOS.GARCIA NOBLEJAS-CASTILLO UCLES","Lines":"4/2 38/2 48/2 70/2 506/2","Latitude":40.42825885038872,"Longitude":-3.6282513732692303},{"Node":"250","Name":"HNOS.GARCIA NOBLEJAS-FCO.L.CABALLERO","Lines":"4/1 38/1 48/1 70/1 506/1","Latitude":40.42555519725046,"Longitude":-3.626764439678949},{"Node":"251","Name":"HNOS.GARCIA NOBLEJAS-JOSE BLAS","Lines":"70/2","Latitude":40.42714625327522,"Longitude":-3.6274181621631088},{"Node":"252","Name":"HNOS.GARCIA NOBLEJAS-AV.ARCENTALES","Lines":"4/2 38/2 48/2 506/2","Latitude":40.4257740866023,"Longitude":-3.6262713519378913},{"Node":"253","Name":"HNOS.GARCIA NOBLEJAS Nº 184","Lines":"70/1","Latitude":40.42246842770373,"Longitude":-3.6244831052761497},{"Node":"255","Name":"GOYA-FERNAN GONZALEZ","Lines":"30/1","Latitude":40.42650149666843,"Longitude":-3.6731734673037333},{"Node":"256","Name":"NICOLAS SALMERON-PAREDES DE NAVA","Lines":"70/2 106/2 507/2","Latitude":40.4204198466401,"Longitude":-3.6267992906143904},{"Node":"257","Name":"NICOLAS SALMERON-PAREDES DE NAVA","Lines":"106/1 507/1","Latitude":40.42022091595451,"Longitude":-3.626934180359422},{"Node":"258","Name":"NICOLAS SALMERON-MATAMOROSA","Lines":"70/2 106/2","Latitude":40.421436395206825,"Longitude":-3.6287301377145083},{"Node":"259","Name":"NICOLAS SALMERON-MATAMOROSA","Lines":"106/1","Latitude":40.421255691103966,"Longitude":-3.6288262938367133},{"Node":"260","Name":"NICOLAS SALMERON Nº 13","Lines":"70/2 106/2 507/2","Latitude":40.42255972784205,"Longitude":-3.630897800281499},{"Node":"261","Name":"NICOLAS SALMERON Nº 13","Lines":"106/1 507/1","Latitude":40.42242430943846,"Longitude":-3.630949581003547},{"Node":"262","Name":"NICOLAS SALMERON-CEMENTERIO CIVIL","Lines":"70/2 106/2","Latitude":40.423764225471785,"Longitude":-3.6330427195918436},{"Node":"263","Name":"NICOLAS SALMERON-CEMENTERIO CIVIL","Lines":"106/1","Latitude":40.42352139367419,"Longitude":-3.6329673564693015},{"Node":"264","Name":"FCO.LARGO CABALLERO-N.SALMERON","Lines":"70/2","Latitude":40.424885196252625,"Longitude":-3.6339845126982038},{"Node":"265","Name":"FCO.LARGO CABALLERO-FRESNO","Lines":"70/2","Latitude":40.4250161779559,"Longitude":-3.6314512307390547},{"Node":"266","Name":"CAIDOS DIVISION AZUL-DUQUE DE PASTRANA","Lines":"70/2 107/2","Latitude":40.46988698932381,"Longitude":-3.6765791560328},{"Node":"278","Name":"HORTALEZA-GRAVINA","Lines":"3/1","Latitude":40.425402795566164,"Longitude":-3.697423193443972},{"Node":"280","Name":"FCO.DE ROJAS-SAGASTA","Lines":"37/2 40/1","Latitude":40.43067798524438,"Longitude":-3.6981025255401114},{"Node":"281","Name":"FCO.DE ROJAS-SAGASTA","Lines":"37/1 40/2","Latitude":40.43055044283638,"Longitude":-3.6983369939964206},{"Node":"282","Name":"FCO.DE ROJAS-LUCHANA","Lines":"40/2","Latitude":40.432052219724476,"Longitude":-3.698788745842946},{"Node":"284","Name":"LUCHANA-PZA.DE CHAMBERÍ","Lines":"40/1 147/1","Latitude":40.4339106240401,"Longitude":-3.696874431588704},{"Node":"285","Name":"LUCHANA-PZA.DE CHAMBERI","Lines":"40/2 147/2","Latitude":40.43382634874901,"Longitude":-3.697404108869557},{"Node":"286","Name":"EDUARDO DATO-ZURBANO","Lines":"40/1 147/1","Latitude":40.43457325793366,"Longitude":-3.6930494992749066},{"Node":"287","Name":"EDUARDO DATO-ZURBANO","Lines":"40/2 147/2","Latitude":40.434842592934466,"Longitude":-3.6932055362508978},{"Node":"288","Name":"EDUARDO DATO-RUBEN DARIO","Lines":"40/1 147/1","Latitude":40.43467632679148,"Longitude":-3.6908811807453574},{"Node":"289","Name":"ALBERTO AGUILERA-PRINCESA","Lines":"602/1 602/2","Latitude":40.43230186405762,"Longitude":-3.713959920354505},{"Node":"292","Name":"AV.RAFAELA YBARRA-BEASAIN","Lines":"6/1 131/1","Latitude":40.36867912341804,"Longitude":-3.7111538137523077},{"Node":"293","Name":"ALBERTO ALCOCER-PADRE DAMIAN","Lines":"11/1 40/1","Latitude":40.460456603146,"Longitude":-3.683891545074267},{"Node":"294","Name":"ALBERTO ALCOCER-PADRE DAMIAN","Lines":"11/2 40/2","Latitude":40.460844245196945,"Longitude":-3.683848297564178},{"Node":"295","Name":"ALBERTO ALCOCER-Pº DE LA HABANA","Lines":"11/1 40/1","Latitude":40.46032918044951,"Longitude":-3.681059553850144},{"Node":"296","Name":"ALBERTO ALCOCER-Pº DE LA HABANA","Lines":"11/2 40/2","Latitude":40.46063532862909,"Longitude":-3.68108623495611},{"Node":"297","Name":"ALBERTO ALCOCER-BOLIVIA","Lines":"11/1 40/1","Latitude":40.46041614222042,"Longitude":-3.676991296533386},{"Node":"298","Name":"ALBERTO ALCOCER-BOLIVIA","Lines":"11/2 40/2","Latitude":40.460758118054684,"Longitude":-3.677053702865394},{"Node":"299","Name":"COSTA RICA-CHILE","Lines":"7/1 11/1 40/1","Latitude":40.460198396959186,"Longitude":-3.6741702110331174},{"Node":"300","Name":"COSTA RICA-VICTOR DE LA SERNA","Lines":"7/1 11/1 40/1 87/1","Latitude":40.4601537295024,"Longitude":-3.6710088244543435},{"Node":"302","Name":"COSTA RICA-PZA.JOSE MARIA SOLER","Lines":"7/1 11/1 40/1 87/1","Latitude":40.460604850271864,"Longitude":-3.6677815838256467},{"Node":"303","Name":"COSTA RICA-PZA.JOSE MARIA SOLER","Lines":"7/2 11/2 40/2 87/2","Latitude":40.46086473293403,"Longitude":-3.6680200508418404},{"Node":"304","Name":"AV.ALFONSO XIII-AV.ASTER","Lines":"40/1","Latitude":40.458921327939755,"Longitude":-3.6660193516636115},{"Node":"305","Name":"AV.ALFONSO XIII-AV.ASTER","Lines":"40/2","Latitude":40.45938270323618,"Longitude":-3.665686587632964},{"Node":"306","Name":"AV.ALFONSO XIII-AV.ALHELIES","Lines":"40/1","Latitude":40.457021762014826,"Longitude":-3.665788301181845},{"Node":"307","Name":"AV.ALFONSO XIII-AV.ALHELIES","Lines":"40/2","Latitude":40.45705956165139,"Longitude":-3.6654820299578783},{"Node":"308","Name":"AV.ALFONSO XIII-AV.RAMON Y CAJAL","Lines":"40/1","Latitude":40.45501950112625,"Longitude":-3.666181314947645},{"Node":"309","Name":"AV.ALFONSO XIII-AV.RAMON Y CAJAL","Lines":"40/2","Latitude":40.454993970619775,"Longitude":-3.66592160243815},{"Node":"310","Name":"AV.ALFONSO XIII-PRADILLO","Lines":"9/2 40/1 43/2 72/2 73/2 502/2","Latitude":40.45309945703075,"Longitude":-3.6663769908400403},{"Node":"311","Name":"AV.ALFONSO XIII-PRADILLO","Lines":"40/2 43/1","Latitude":40.45281303416937,"Longitude":-3.666053384369761},{"Node":"312","Name":"SAN NAZARIO Nº 1","Lines":"40/1 40/2","Latitude":40.45003726467175,"Longitude":-3.6662264559434385},{"Node":"313","Name":"CORAZON DE MARIA-SAN NAZARIO","Lines":"40/2 43/1 72/1","Latitude":40.45034351231919,"Longitude":-3.6646716462008317},{"Node":"314","Name":"COSTA RICA-PZA.REP.DOMINICANA","Lines":"7/2 11/2 40/2 87/2","Latitude":40.46063671475077,"Longitude":-3.6747053515138974},{"Node":"315","Name":"GAINZA-AV.RAFAELA YBARRA","Lines":"6/1","Latitude":40.367658666341654,"Longitude":-3.7130111413405875},{"Node":"316","Name":"MIGUEL ANGEL-RUBEN DARIO","Lines":"40/2 147/2","Latitude":40.43522091932824,"Longitude":-3.6902029241101477},{"Node":"317","Name":"PZA.DE CHAMBERI","Lines":"40/2 147/2","Latitude":40.43447518475786,"Longitude":-3.6958781055405585},{"Node":"320","Name":"RONDA DE VALENCIA","Lines":"34/1 36/1 41/1 68/1 119/1 512/1 515/1","Latitude":40.40729484234879,"Longitude":-3.7003664203507265},{"Node":"321","Name":"RONDA DE VALENCIA","Lines":"34/2 36/2 41/2 119/2 512/2 515/2","Latitude":40.407079823314426,"Longitude":-3.7001685560123567},{"Node":"322","Name":"Pº ACACIAS-GTA.EMBAJADORES","Lines":"34/1 36/1 119/1 512/1 515/1","Latitude":40.406540147829894,"Longitude":-3.7029949412169714},{"Node":"323","Name":"Pº ACACIAS-GTA.EMBAJADORES","Lines":"34/2 36/2 119/2 512/2 515/2","Latitude":40.406407334161685,"Longitude":-3.7026128989497336},{"Node":"324","Name":"Pº ACACIAS-RIBERA DE CURTIDORES","Lines":"34/1 36/1 62/2 116/1 118/1 119/1","Latitude":40.405775090767534,"Longitude":-3.705835425752304},{"Node":"325","Name":"Pº ACACIAS-Pº ESPERANZA","Lines":"34/2 36/2 62/1 116/2 118/2 119/2","Latitude":40.40558672541782,"Longitude":-3.7057002874591003},{"Node":"326","Name":"Pº ACACIAS-Pº OLMOS","Lines":"34/1 36/1 62/2 116/1 118/1 119/1 512/1 515/1","Latitude":40.40497333092245,"Longitude":-3.7087732755275513},{"Node":"327","Name":"Pº ACACIAS-GTA.PIRAMIDES","Lines":"34/1 36/1 62/2 116/1 118/1 119/1 512/1 515/1","Latitude":40.40316951742725,"Longitude":-3.7120316482045292},{"Node":"328","Name":"Pº ACACIAS-GTA.PIRAMIDES","Lines":"34/2 36/2 62/1 116/2 118/2 119/2 512/2 515/2","Latitude":40.40297172278305,"Longitude":-3.711965927485902},{"Node":"329","Name":"GRAL.RICARDOS-GTA.MQUES.VADILLO","Lines":"34/1 35/1 118/1 119/1 526/1","Latitude":40.39900081287526,"Longitude":-3.716004843499246},{"Node":"330","Name":"GRAL.RICARDOS-GTA.MQUES.VADILLO","Lines":"34/2 35/2 118/2 119/2 526/2","Latitude":40.39903170375576,"Longitude":-3.715380626169007},{"Node":"331","Name":"GRAL.RICARDOS-IGLESIA","Lines":"34/2 35/2 118/2 119/2 526/2","Latitude":40.397728595344965,"Longitude":-3.717770694260962},{"Node":"332","Name":"GUETARIA-ORDICIA","Lines":"6/1","Latitude":40.36834534650492,"Longitude":-3.714149115217284},{"Node":"334","Name":"GRAL.RICARDOS-Cº VIEJO LEGANES","Lines":"34/2 35/2 118/2 119/2 526/2","Latitude":40.395541294242285,"Longitude":-3.7218067962404655},{"Node":"336","Name":"GRAL.RICARDOS-URGEL","Lines":"34/2 35/2 119/2 526/2","Latitude":40.39430166703088,"Longitude":-3.7241089248215022},{"Node":"337","Name":"GRAL.RICARDOS-CLARISAS","Lines":"34/1 35/1 118/1 526/1","Latitude":40.3923964872095,"Longitude":-3.7276586746248563},{"Node":"338","Name":"GRAL.RICARDOS-CLARISAS","Lines":"34/2 35/2 526/2","Latitude":40.392135760763864,"Longitude":-3.7275733895663157},{"Node":"340","Name":"GRAL.RICARDOS-GTA.VALLE DE ORO","Lines":"34/2 35/2 526/2","Latitude":40.390625357114686,"Longitude":-3.729937176605946},{"Node":"341","Name":"GRAL.RICARDOS-VISTA ALEGRE","Lines":"34/1 35/1 517/1","Latitude":40.387126946387745,"Longitude":-3.736077771056915},{"Node":"342","Name":"GRAL.RICARDOS-VISTA ALEGRE","Lines":"34/2 35/2 517/2","Latitude":40.38693809881411,"Longitude":-3.736023875468729},{"Node":"343","Name":"GRAL.RICARDOS-Pº MUÑOZ GRANDES","Lines":"34/1 35/1 517/1","Latitude":40.38665572686946,"Longitude":-3.7379223670215485},{"Node":"344","Name":"GRAL.RICARDOS-Pº MUÑOZ GRANDES","Lines":"34/2","Latitude":40.386337528308985,"Longitude":-3.7383736655149518},{"Node":"345","Name":"GRAL.RICARDOS-NTRA.SRA.DE LA LUZ","Lines":"34/1","Latitude":40.38451563593484,"Longitude":-3.7415111643712553},{"Node":"346","Name":"GRAL.RICARDOS-NTRA.SRA.DE LA LUZ","Lines":"34/2","Latitude":40.38443624419281,"Longitude":-3.741247570654057},{"Node":"347","Name":"GRAL.RICARDOS-EUGENIA  DE MONTIJO","Lines":"34/1","Latitude":40.38277126139651,"Longitude":-3.743789334130022},{"Node":"348","Name":"GRAL.RICARDOS-EUGENIA  DE MONTIJO","Lines":"34/2","Latitude":40.38258287958277,"Longitude":-3.7436635618129914},{"Node":"349","Name":"EUGENIA DE MONTIJO Nº 78","Lines":"34/1","Latitude":40.380845966795206,"Longitude":-3.746174951229079},{"Node":"350","Name":"EUGENIA DE MONTIJO Nº 55","Lines":"34/2","Latitude":40.38182725553629,"Longitude":-3.7448863510232524},{"Node":"351","Name":"EUGENIA DE MONTIJO-NTRA.SRA.FATIMA","Lines":"34/1","Latitude":40.38016543606594,"Longitude":-3.7469261106412723},{"Node":"352","Name":"EUGENIA DE MONTIJO-NTRA.SRA.FATIMA","Lines":"34/2","Latitude":40.380067263757624,"Longitude":-3.7467824818333506},{"Node":"353","Name":"RONDA DON BOSCO-PZA.PARTERRE","Lines":"34/1 139/1","Latitude":40.37759520894685,"Longitude":-3.750117229869085},{"Node":"354","Name":"RONDA DON BOSCO-PARAGUAYA","Lines":"34/1","Latitude":40.3764561477602,"Longitude":-3.7521071821430447},{"Node":"355","Name":"JOAQUIN TURINA-POLVORANCA","Lines":"34/1","Latitude":40.37390756462026,"Longitude":-3.753339247612895},{"Node":"356","Name":"JOAQUIN TURINA-POLVORANCA","Lines":"34/2 139/2","Latitude":40.373718809397914,"Longitude":-3.7532723586121373},{"Node":"357","Name":"JOAQUIN TURINA-NAVALMORALES","Lines":"34/1","Latitude":40.37406936516786,"Longitude":-3.7575321931661256},{"Node":"358","Name":"JOAQUIN TURINA-NAVALMORALES","Lines":"34/2","Latitude":40.37396854381972,"Longitude":-3.7577949243122584},{"Node":"359","Name":"GRAL.MILLAN ASTRAY-GRAL.SALIQUET","Lines":"34/1 155/1","Latitude":40.37681048723003,"Longitude":-3.764020671214326},{"Node":"360","Name":"GRAL.MILLAN ASTRAY-GRAL.SALIQUET","Lines":"34/2 155/2 519/2","Latitude":40.37615154999613,"Longitude":-3.7642134855341003},{"Node":"361","Name":"GRAL.MILLAN ASTRAY-GRAL.R.BASART","Lines":"34/1 155/1","Latitude":40.37935337987021,"Longitude":-3.7650307053917187},{"Node":"362","Name":"GRAL.MILLAN ASTRAY-GRAL.R.BASART","Lines":"34/2 155/2 519/2","Latitude":40.37927108058063,"Longitude":-3.7652147266344027},{"Node":"363","Name":"GRAL.ROMERO BASART-JOSE DE CADALSO","Lines":"34/1","Latitude":40.379345785539904,"Longitude":-3.767536312109923},{"Node":"364","Name":"GRAL.ROMERO BASART-JOSE DE CADALSO","Lines":"34/2 519/2","Latitude":40.37900002506422,"Longitude":-3.7680507233831575},{"Node":"365","Name":"GRAL.ROMERO BASART-RAFAEL FINAT","Lines":"17/1 34/1 139/1","Latitude":40.37973638730899,"Longitude":-3.771116118894385},{"Node":"366","Name":"GRAL.ROMERO BASART-RAFAEL FINAT","Lines":"17/2 34/2 39/2 117/2 139/2 519/2","Latitude":40.37948379883356,"Longitude":-3.7711662508315738},{"Node":"367","Name":"OLIVA DE PLASENCIA-GRAL.R.BASART","Lines":"34/1","Latitude":40.38112363665413,"Longitude":-3.7738356107655875},{"Node":"368","Name":"OLIVA DE PLASENCIA Nº 25","Lines":"34/1","Latitude":40.38090119964508,"Longitude":-3.7761079136975177},{"Node":"369","Name":"MIRABEL-PZA.CUACOS DE YUSTE","Lines":"34/1","Latitude":40.38065736213665,"Longitude":-3.7788759197080966},{"Node":"370","Name":"MIRABEL-PZA.CUACOS DE YUSTE","Lines":"34/2","Latitude":40.380628932476995,"Longitude":-3.779084109344339},{"Node":"371","Name":"AV.GRAL.FANJUL -EST.RENFE AGUILAS","Lines":"17/2 34/1","Latitude":40.38280344126688,"Longitude":-3.7785907972921824},{"Node":"372","Name":"AV.GRAL.FANJUL -EST.RENFE AGUILAS","Lines":"17/2 34/2","Latitude":40.38337600963163,"Longitude":-3.7791864450031682},{"Node":"373","Name":"AV.GENERAL FANJUL","Lines":"34/1 34/2","Latitude":40.38369317205982,"Longitude":-3.7762330285896395},{"Node":"374","Name":"OLIVA DE PLASENCIA Nº 28","Lines":"34/2 39/1 117/1 519/1","Latitude":40.381127818447084,"Longitude":-3.7745566383239613},{"Node":"375","Name":"GRAL.ROMERO BASART-OLIVA PLASENCIA","Lines":"39/1 39/2 519/1 519/2","Latitude":40.38073100282699,"Longitude":-3.773272715401888},{"Node":"376","Name":"EUGENIA DE MONTIJO-PZA.EMPERATRIZ","Lines":"34/2 35/2 47/2 139/2 517/2","Latitude":40.375903608116666,"Longitude":-3.749792194581713},{"Node":"377","Name":"EUGENIA DE MONTIJO-PZA.EMPERATRIZ","Lines":"35/1 47/1 517/1","Latitude":40.37616389820507,"Longitude":-3.7499423282073923},{"Node":"378","Name":"EUGENIA DE MONTIJO-PZA.PARTERRE","Lines":"34/2 35/2 47/2 139/2 517/2","Latitude":40.376914386283445,"Longitude":-3.7495206797043927},{"Node":"379","Name":"EUGENIA DE MONTIJO-PZA.PARTERRE","Lines":"35/1 47/1 517/1","Latitude":40.377110968464635,"Longitude":-3.7497702386779337},{"Node":"380","Name":"Pº ACACIAS-DR.VALLEJO NAJERA","Lines":"34/2 36/2 62/1 116/2 118/2 119/2","Latitude":40.40422806441946,"Longitude":-3.709836693753147},{"Node":"381","Name":"Pº ACACIAS-Pº OLMOS","Lines":"34/2 36/2 62/1 116/2 118/2 119/2 512/2 515/2","Latitude":40.40481258666378,"Longitude":-3.708541784420957},{"Node":"383","Name":"ULISES-ARTURO SORIA","Lines":"120/1 122/1","Latitude":40.45786882870769,"Longitude":-3.6547089756808857},{"Node":"384","Name":"ULISES-ARTURO SORIA","Lines":"120/2 122/2","Latitude":40.45802213349425,"Longitude":-3.6546821578394035},{"Node":"385","Name":"ULISES-ASURA","Lines":"120/1 122/1","Latitude":40.45887341239787,"Longitude":-3.652304427357703},{"Node":"386","Name":"ULISES-ASURA","Lines":"120/2 122/2","Latitude":40.459034966374354,"Longitude":-3.652412139218114},{"Node":"387","Name":"MOSCATELAR-PARMA","Lines":"120/1 122/1","Latitude":40.45893918789289,"Longitude":-3.648620509112987},{"Node":"388","Name":"MOSCATELAR-PARMA","Lines":"120/2 122/2","Latitude":40.45907792048589,"Longitude":-3.647979050030808},{"Node":"389","Name":"MOSCATELAR-MILAN","Lines":"120/1 122/1","Latitude":40.45890846463355,"Longitude":-3.6460631998130664},{"Node":"390","Name":"MOSCATELAR-MILAN","Lines":"120/2 122/2","Latitude":40.4591546595749,"Longitude":-3.645534810827809},{"Node":"391","Name":"SILVANO-PZA.DEL LICEO","Lines":"120/1 122/1","Latitude":40.45968499971222,"Longitude":-3.642514602801337},{"Node":"392","Name":"SILVANO-PZA.DEL LICEO","Lines":"120/2 122/2","Latitude":40.45977404237562,"Longitude":-3.6427029836425504},{"Node":"393","Name":"SILVANO-COL.VIRGEN DE LA ESPERANZA","Lines":"120/1 122/1","Latitude":40.4614499572517,"Longitude":-3.6410370187500516},{"Node":"394","Name":"SILVANO-COL.VIRGEN DE LA ESPERANZA","Lines":"120/2 122/2","Latitude":40.461439149546635,"Longitude":-3.641361272713017},{"Node":"395","Name":"SILVANO-ALCORISA","Lines":"120/1 122/1","Latitude":40.46380922282142,"Longitude":-3.6379773602148977},{"Node":"396","Name":"SILVANO-ALCORISA","Lines":"120/2 122/2","Latitude":40.4634890910128,"Longitude":-3.6388495313954197},{"Node":"397","Name":"SILVANO-EL ALGABEÑO","Lines":"120/1 122/1","Latitude":40.464422382837164,"Longitude":-3.63624335303608},{"Node":"398","Name":"SILVANO-EL ALGABEÑO","Lines":"120/2 122/2","Latitude":40.464610133162665,"Longitude":-3.6365046222291486},{"Node":"399","Name":"FEDERICO MOMPOU-ISABEL COLBRAND","Lines":"524/1","Latitude":40.512599591100006,"Longitude":-3.6779053661645023},{"Node":"405","Name":"CAMPO NACIONES-GTA.JUAN DE BORBON","Lines":"112/1 122/1","Latitude":40.46314537729702,"Longitude":-3.61417094065672},{"Node":"406","Name":"CAMPO NACIONES-GTA.JUAN DE BORBON","Lines":"112/2 122/2","Latitude":40.463295682655506,"Longitude":-3.6147066287465486},{"Node":"408","Name":"AV.RAMON Y CAJAL-AV.LA PAZ","Lines":"9/1 72/1 73/1 120/1 502/1","Latitude":40.45537972675818,"Longitude":-3.6599224068577225},{"Node":"409","Name":"AV.RAMON Y CAJAL-AV.LA PAZ","Lines":"9/2 72/2 73/2 120/2 502/2","Latitude":40.45552150544704,"Longitude":-3.6603365751579746},{"Node":"410","Name":"AV.RAMON Y CAJAL-MOSTOLES","Lines":"43/2 120/1","Latitude":40.45416801142712,"Longitude":-3.666986657366466},{"Node":"411","Name":"AV.RAMON Y CAJAL-MOSTOLES","Lines":"43/1 120/2","Latitude":40.45445471744876,"Longitude":-3.667260744229451},{"Node":"412","Name":"AV.RAMON Y CAJAL-PPE.VERGARA","Lines":"43/2 52/1 120/1","Latitude":40.45338840036576,"Longitude":-3.6755763151062695},{"Node":"413","Name":"AV.RAMON Y CAJAL-PPE.VERGARA","Lines":"43/1 52/2 120/2","Latitude":40.453594147487905,"Longitude":-3.6758260372206344},{"Node":"414","Name":"PRINCIPE DE VERGARA-PZA.CATALUÑA","Lines":"16/1 29/1 52/1 501/1","Latitude":40.451392908634176,"Longitude":-3.6763464629363467},{"Node":"415","Name":"PRINCIPE DE VERGARA-PZA.CATALUÑA","Lines":"16/2 29/2 52/2","Latitude":40.451057317739554,"Longitude":-3.676732266012185},{"Node":"416","Name":"AV.DR.ARCE-PZA.SANTA GEMA","Lines":"7/1 16/1 19/2 51/1 501/1","Latitude":40.449241169821875,"Longitude":-3.6791787101536833},{"Node":"417","Name":"AV.DR.ARCE-PZA.SANTA GEMA","Lines":"16/2 19/1","Latitude":40.44931982037857,"Longitude":-3.6795922448829455},{"Node":"418","Name":"AV.DOCTOR ARCE-VELAZQUEZ","Lines":"16/1 19/2 51/1 501/1","Latitude":40.44798801244765,"Longitude":-3.680864203526451},{"Node":"419","Name":"JOAQUIN COSTA-PZA.REP.ARGENTINA","Lines":"7/2 69/2","Latitude":40.447955110825916,"Longitude":-3.684908669948743},{"Node":"420","Name":"JOAQUIN COSTA-PZA.REP.ARGENTINA","Lines":"7/1 68/1","Latitude":40.44742326242096,"Longitude":-3.6849622324592577},{"Node":"421","Name":"JOAQUIN COSTA-N.MINISTERIOS","Lines":"7/1 68/1","Latitude":40.4478506325709,"Longitude":-3.68884626941235},{"Node":"422","Name":"JOAQUIN COSTA-N.MINISTERIOS","Lines":"7/2 69/2","Latitude":40.448256434442506,"Longitude":-3.6887796579133543},{"Node":"423","Name":"VELAZQUEZ-VILLANUEVA","Lines":"1/1 9/1 19/2 51/1 74/1","Latitude":40.42399380126515,"Longitude":-3.682932698593724},{"Node":"424","Name":"VELAZQUEZ-GOYA","Lines":"1/1 9/1 19/2 51/1 74/1 504/1","Latitude":40.426715620743714,"Longitude":-3.6827480317819306},{"Node":"425","Name":"VELAZQUEZ-AYALA","Lines":"1/1 9/1 19/2 51/1 74/1","Latitude":40.42943771716378,"Longitude":-3.6825161977056284},{"Node":"426","Name":"VELAZQUEZ-J.ORTEGA Y GASSET","Lines":"1/1 9/1 19/2 51/1 74/1 504/1","Latitude":40.431907852615865,"Longitude":-3.682234641441535},{"Node":"427","Name":"VELAZQUEZ-JUAN BRAVO","Lines":"9/1 19/2 51/1 504/1","Latitude":40.433935527416445,"Longitude":-3.6821254451841456},{"Node":"428","Name":"VELAZQUEZ-DIEGO DE LEON","Lines":"9/1 19/2 51/1 504/1","Latitude":40.43651327526934,"Longitude":-3.6819274782023372},{"Node":"430","Name":"VELAZQUEZ-LOPEZ DE HOYOS","Lines":"16/1 19/2 51/1 501/1","Latitude":40.44160626362937,"Longitude":-3.6814365412849748},{"Node":"431","Name":"VELAZQUEZ-JOAQUIN COSTA","Lines":"16/1 19/2 51/1","Latitude":40.443255231299275,"Longitude":-3.6813824436260365},{"Node":"432","Name":"VELAZQUEZ Nº 150","Lines":"16/1 19/2 51/1 501/1","Latitude":40.444985830656975,"Longitude":-3.6812348329951314},{"Node":"433","Name":"CINCA-PZA.DE CATALUÑA","Lines":"7/1 51/1","Latitude":40.45115684962802,"Longitude":-3.678195593650686},{"Node":"434","Name":"CINCA-SERRANO","Lines":"7/1 51/1","Latitude":40.45205291247342,"Longitude":-3.6805514357646807},{"Node":"435","Name":"SERRANO-HOSPITAL SAN RAFAEL","Lines":"7/1 51/1","Latitude":40.453931598479336,"Longitude":-3.679733054191067},{"Node":"436","Name":"SERRANO-HOSPITAL SAN RAFAEL","Lines":"51/2 501/2","Latitude":40.45402881873508,"Longitude":-3.6800524578106084},{"Node":"437","Name":"SERRANO-PRINCIPE DE VERGARA","Lines":"7/1 51/1","Latitude":40.456454768750525,"Longitude":-3.6765505404034897},{"Node":"438","Name":"SERRANO-PRINCIPE DE VERGARA","Lines":"51/2 501/2","Latitude":40.456206774760055,"Longitude":-3.6773618291998664},{"Node":"439","Name":"PRINCIPE DE VERGARA-COLOMBIA","Lines":"7/1 16/1 29/1 51/1 501/1","Latitude":40.45991204330451,"Longitude":-3.6753821828706283},{"Node":"440","Name":"PRINCIPE DE VERGARA-COLOMBIA","Lines":"7/2 16/2 29/2 51/2 501/2","Latitude":40.45935935627132,"Longitude":-3.6759191908959554},{"Node":"441","Name":"SERRANO-SEGRE","Lines":"7/2 51/2 501/2","Latitude":40.451804821253624,"Longitude":-3.681374449128577},{"Node":"442","Name":"SERRANO-GUADIANA","Lines":"7/2 51/2 501/2","Latitude":40.44971614433135,"Longitude":-3.6826623454548075},{"Node":"443","Name":"SERRANO-PZA.REP.ARGENTINA","Lines":"16/2 19/1 51/2 501/2","Latitude":40.44629909090807,"Longitude":-3.68463243246637},{"Node":"444","Name":"SERRANO-INST.RAMIRO DE MAEZTU","Lines":"16/2 19/1 51/2 501/2","Latitude":40.44434278773114,"Longitude":-3.6848602102488393},{"Node":"445","Name":"SERRANO Nº 111","Lines":"16/2 19/1 51/2","Latitude":40.442567281725154,"Longitude":-3.684983687893978},{"Node":"446","Name":"SERRANO-MARIA DE MOLINA","Lines":"9/2 16/2 19/1 51/2 501/2","Latitude":40.440160832833364,"Longitude":-3.68515970968719},{"Node":"447","Name":"SERRANO-GRAL.ORAA","Lines":"9/2 16/2 19/1 51/2 504/2","Latitude":40.43766394855549,"Longitude":-3.6853937549065208},{"Node":"448","Name":"SERRANO-MALDONADO","Lines":"9/2 19/1 51/2 504/2","Latitude":40.435726147757165,"Longitude":-3.6855391410102616},{"Node":"449","Name":"SERRANO-MQUES.VILLAMAGNA","Lines":"1/2 9/2 19/1 51/2 74/2 504/2","Latitude":40.43145326139733,"Longitude":-3.6859791182351227},{"Node":"451","Name":"SERRANO-GOYA","Lines":"1/2 9/2 19/1 51/2 74/2 504/2","Latitude":40.42793582356516,"Longitude":-3.6866389245657256},{"Node":"452","Name":"SERRANO-MUSEO ARQUEOLOGICO","Lines":"1/2 9/2 19/1 51/2 74/2 504/2","Latitude":40.42487865424308,"Longitude":-3.6871618891015556},{"Node":"453","Name":"AV.CONCHA ESPINA-PZA.S.CORAZONES","Lines":"43/2 120/1","Latitude":40.45358343775521,"Longitude":-3.6837746818902835},{"Node":"454","Name":"AV.CONCHA ESPINA-PZA.S.CORAZONES","Lines":"43/1 120/2","Latitude":40.453862211411526,"Longitude":-3.683860061950753},{"Node":"455","Name":"AV.CONCHA ESPINA-SERRANO","Lines":"43/2 120/1","Latitude":40.45338277585731,"Longitude":-3.6796095900590817},{"Node":"456","Name":"AV.CONCHA ESPINA-SERRANO","Lines":"7/2 43/1 120/2","Latitude":40.453706872395806,"Longitude":-3.6796482356561944},{"Node":"457","Name":"AV.RAMON Y CAJAL-VICTOR DE LA SERNA","Lines":"43/2 120/1","Latitude":40.45335945265031,"Longitude":-3.6728163781108405},{"Node":"458","Name":"AV.RAMON Y CAJAL-VICTOR DE LA SERNA","Lines":"43/1 120/2","Latitude":40.45369317794425,"Longitude":-3.6727489463037193},{"Node":"459","Name":"AV.RAMON Y CAJAL Nº 32","Lines":"43/2 120/1","Latitude":40.454062585833725,"Longitude":-3.6696391498757874},{"Node":"460","Name":"AV.RAMON Y CAJAL Nº 43","Lines":"43/1 120/2","Latitude":40.45427844768357,"Longitude":-3.6697002604886224},{"Node":"461","Name":"AV.RAMON Y CAJAL-PADRE CLARET","Lines":"120/1","Latitude":40.454366916086435,"Longitude":-3.663733606283005},{"Node":"462","Name":"AV.RAMON Y CAJAL-PADRE CLARET","Lines":"9/2 72/2 73/2 120/2 502/2","Latitude":40.4544064561318,"Longitude":-3.664691631659899},{"Node":"463","Name":"JOSE SILVA-AGASTIA","Lines":"120/1","Latitude":40.45665697316078,"Longitude":-3.6571161505705794},{"Node":"464","Name":"JOSE SILVA-AGASTIA","Lines":"120/2","Latitude":40.45672798170388,"Longitude":-3.657303186943551},{"Node":"465","Name":"SILVANO-JOSE DOMINGO RUS","Lines":"120/1","Latitude":40.464438602874154,"Longitude":-3.6316433326623763},{"Node":"466","Name":"SILVANO-JOSE DOMINGO RUS","Lines":"120/2 503/2","Latitude":40.46463679695497,"Longitude":-3.631644009742671},{"Node":"467","Name":"PEDROÑERAS-SILVANO","Lines":"120/1","Latitude":40.464862211258115,"Longitude":-3.628303307267714},{"Node":"468","Name":"PEDROÑERAS-SILVANO","Lines":"120/2 503/1 503/2","Latitude":40.46478927734213,"Longitude":-3.6284618652825937},{"Node":"469","Name":"PEDROÑERAS-EL PROVENCIO","Lines":"73/2 120/1","Latitude":40.46633705785912,"Longitude":-3.628786517613232},{"Node":"470","Name":"PEDROÑERAS-EL PROVENCIO","Lines":"73/1 120/2 503/1","Latitude":40.46592255633657,"Longitude":-3.6288027045473887},{"Node":"471","Name":"MOTA DEL CUERVO Nº 9","Lines":"73/2 120/1","Latitude":40.46682356417233,"Longitude":-3.6304365598410393},{"Node":"472","Name":"MOTA DEL CUERVO Nº 48","Lines":"73/1 120/2 503/1","Latitude":40.46661616216508,"Longitude":-3.6304723667726666},{"Node":"473","Name":"MOTA DEL CUERVO-MOTILLA DEL PALANCAR","Lines":"73/2 120/1","Latitude":40.46667491903891,"Longitude":-3.632908730023318},{"Node":"474","Name":"MOTA DEL CUERVO-MOTILLA DEL PALANCAR","Lines":"73/1 120/2 503/1","Latitude":40.46655764676619,"Longitude":-3.632937118395517},{"Node":"475","Name":"LOS EMIGRANTES-TREFACIO","Lines":"112/2 120/1 153/1","Latitude":40.46761995874396,"Longitude":-3.6347164720974767},{"Node":"476","Name":"LOS EMIGRANTES-CTRA.DE CANILLAS","Lines":"112/1 120/2 153/2","Latitude":40.467591216316755,"Longitude":-3.6350287920036553},{"Node":"477","Name":"LOS EMIGRANTES-TRIBALDOS","Lines":"112/2 120/1 153/1","Latitude":40.46925448520343,"Longitude":-3.635646062881304},{"Node":"478","Name":"LOS EMIGRANTES-TRIBALDOS","Lines":"112/1 120/2 153/2","Latitude":40.46912667901278,"Longitude":-3.6359515573901007},{"Node":"479","Name":"AYACUCHO-MAR ADRIATICO","Lines":"120/1 125/1 172/1 372/1","Latitude":40.47182741762483,"Longitude":-3.6379411706922102},{"Node":"480","Name":"AYACUCHO-GTA.SANDRO PERTINI","Lines":"87/2 120/1 125/1 172/1 372/1","Latitude":40.47186648849681,"Longitude":-3.6406500430739026},{"Node":"481","Name":"VALDETORRES DE JARAMA-LIBERACION","Lines":"120/1 125/1 172/1 372/1","Latitude":40.47221981250883,"Longitude":-3.641918004590439},{"Node":"482","Name":"VALDETORRES DE JARAMA-LIBERACION","Lines":"120/2 125/2 172/2 372/2","Latitude":40.47212746006709,"Longitude":-3.6423252895515694},{"Node":"483","Name":"VALDETORRES DE JARAMA-ANGEL LUIS HERRAN","Lines":"120/1 125/1 172/1 372/1","Latitude":40.473056146444186,"Longitude":-3.6438075618368506},{"Node":"484","Name":"VALDETORRES DE JARAMA-ANGEL LUIS HERRAN","Lines":"120/2 125/2 172/2 372/2","Latitude":40.472785858757774,"Longitude":-3.643810878736236},{"Node":"485","Name":"VALDETORRES DE JARAMA-ROGELIO MUÑOZ","Lines":"120/1 125/1 172/1 372/1","Latitude":40.47364339285908,"Longitude":-3.6451249885594037},{"Node":"486","Name":"VALDETORRES DE JARAMA-ROGELIO MUÑOZ","Lines":"120/2 125/2 172/2 372/2","Latitude":40.473488654793286,"Longitude":-3.645408992496499},{"Node":"487","Name":"VALDETORRES DE JARAMA-PZA.SANTOS HUMOSA","Lines":"120/1 125/1 172/1 372/1","Latitude":40.47449788861921,"Longitude":-3.6469794086760356},{"Node":"488","Name":"PZA.SANTOS DE LA HUMOSA","Lines":"120/1 120/2","Latitude":40.4747706217612,"Longitude":-3.6481475819315303},{"Node":"489","Name":"AREQUIPA-TORRESANDINO","Lines":"87/1 120/2 125/2 172/2 372/2","Latitude":40.470827740548735,"Longitude":-3.639513612103643},{"Node":"490","Name":"AREQUIPA-LOS EMIGRANTES","Lines":"120/2","Latitude":40.47081030255077,"Longitude":-3.6377781918760124},{"Node":"491","Name":"ALMAGRO-PZA.ALONSO MARTINEZ","Lines":"7/1 7/2 525/1 525/2 526/1 526/2","Latitude":40.42988390529456,"Longitude":-3.6938266047366377},{"Node":"492","Name":"ALMAGRO-ZURBANO","Lines":"7/1","Latitude":40.43220467245686,"Longitude":-3.6914135348110806},{"Node":"493","Name":"ALMAGRO-ZURBANO","Lines":"7/2","Latitude":40.43200269818925,"Longitude":-3.692044568945193},{"Node":"494","Name":"ALMAGRO-Pº EDUARDO DATO","Lines":"7/1","Latitude":40.43406769450259,"Longitude":-3.690214712045759},{"Node":"495","Name":"ALMAGRO-Pº EDUARDO DATO","Lines":"7/2","Latitude":40.434318242009304,"Longitude":-3.6905002346956066},{"Node":"496","Name":"AV.Cº SANTIAGO-ESTELLA","Lines":"172/2 176/2 372/2","Latitude":40.49855816079929,"Longitude":-3.6726870968319405},{"Node":"497","Name":"ARTURO SORIA-JULIO DANVILA","Lines":"7/1 29/1 107/1 501/1","Latitude":40.47301328601484,"Longitude":-3.6656866945552617},{"Node":"498","Name":"ARTURO SORIA-SERRANO GALVACHE","Lines":"7/2 29/2 107/2 501/2","Latitude":40.4728395428166,"Longitude":-3.6661332561887994},{"Node":"499","Name":"ARTURO SORIA-ELADIO LOPEZ VILCHES","Lines":"7/1 29/1 107/1","Latitude":40.47508210354787,"Longitude":-3.666249796007578},{"Node":"500","Name":"ARTURO SORIA-ELADIO LOPEZ VILCHES","Lines":"7/2 29/2 107/2","Latitude":40.47501639149243,"Longitude":-3.666709235530621},{"Node":"501","Name":"AV.SAN LUIS-ARTURO SORIA","Lines":"7/1 107/1 125/2 501/1","Latitude":40.477288160115364,"Longitude":-3.666447386802206},{"Node":"502","Name":"AV.SAN LUIS-ARTURO SORIA","Lines":"7/2 107/2","Latitude":40.47762938574495,"Longitude":-3.6666407025492322},{"Node":"503","Name":"AV.SAN LUIS-MESENA","Lines":"7/1 107/1 125/2 501/1","Latitude":40.47657834553275,"Longitude":-3.6645539591158167},{"Node":"504","Name":"AV.SAN LUIS-GOLFO DE SALONICA","Lines":"7/2 107/2 125/1","Latitude":40.476812158266625,"Longitude":-3.6646270493426885},{"Node":"505","Name":"CUEVAS DE ALMANZORA-AV.SAN LUIS","Lines":"7/1 501/1","Latitude":40.475721107084,"Longitude":-3.6616551733246023},{"Node":"506","Name":"CUEVAS DE ALMANZORA-AV.SAN LUIS","Lines":"7/2","Latitude":40.47582785769886,"Longitude":-3.6618921672484457},{"Node":"507","Name":"CUEVAS DE ALMANZORA-BACARES","Lines":"7/1 29/2 129/2 501/1","Latitude":40.47738199352427,"Longitude":-3.659512522756244},{"Node":"508","Name":"CUEVAS DE ALMANZORA Nº 18","Lines":"7/1 29/2 129/2 501/1","Latitude":40.47878058862209,"Longitude":-3.657544175811274},{"Node":"509","Name":"ALICUN-SOMONTIN","Lines":"7/1 29/2 129/1","Latitude":40.48098463937717,"Longitude":-3.658096600502647},{"Node":"510","Name":"VELEZ RUBIO Nº 113","Lines":"7/1 29/2 129/1","Latitude":40.48001057756238,"Longitude":-3.659868591262355},{"Node":"511","Name":"BACARES-VELEZ RUBIO","Lines":"7/1 7/2 29/1 29/2","Latitude":40.47818365600811,"Longitude":-3.661113058697885},{"Node":"512","Name":"BACARES-CUEVAS DE ALMANZORA","Lines":"7/2","Latitude":40.477298156458076,"Longitude":-3.659995402227156},{"Node":"513","Name":"ARTURO SORIA-CUARTEL INFANTERIA MARINA","Lines":"7/2 29/2 107/2 501/2","Latitude":40.476896502300704,"Longitude":-3.6671879352640198},{"Node":"514","Name":"PRINCIPE DE VERGARA-SERRANO","Lines":"7/2 16/2 29/2","Latitude":40.455970451009705,"Longitude":-3.676180073952812},{"Node":"515","Name":"PRINCIPE DE VERGARA-SERRANO","Lines":"16/1 29/1 501/1","Latitude":40.455692775030975,"Longitude":-3.6759060334934204},{"Node":"516","Name":"PRINCIPE DE VERGARA-CONCHA ESPINA","Lines":"7/2 16/2 29/2","Latitude":40.454221629307234,"Longitude":-3.6763642115706903},{"Node":"517","Name":"PRINCIPE DE VERGARA-CONCHA ESPINA","Lines":"16/1 29/1","Latitude":40.453213860917145,"Longitude":-3.6761524405847843},{"Node":"518","Name":"ALMAGRO Nº 3","Lines":"7/2","Latitude":40.43029822413501,"Longitude":-3.693842652190912},{"Node":"520","Name":"FDEZ.DE LOS RIOS-HILARION ESLAVA","Lines":"16/1 61/1","Latitude":40.43730057440654,"Longitude":-3.7156257416678145},{"Node":"521","Name":"FDEZ.DE LOS RIOS-GUZMAN EL BUENO","Lines":"16/1 61/1","Latitude":40.437150703216936,"Longitude":-3.7121766061035726},{"Node":"522","Name":"FDEZ.DE LOS RIOS-VALLEHERMOSO","Lines":"16/1 61/1","Latitude":40.43692554706711,"Longitude":-3.707764591931342},{"Node":"523","Name":"FDEZ.DE LOS RIOS-MAGALLANES","Lines":"16/1 61/1","Latitude":40.43669850039001,"Longitude":-3.7036355573919746},{"Node":"524","Name":"CARDENAL CISNEROS-ELOY GONZALO","Lines":"16/1 61/1","Latitude":40.435999236798466,"Longitude":-3.701587363537162},{"Node":"525","Name":"ELOY GONZALO-JUAN DE AUSTRIA","Lines":"16/1 61/1","Latitude":40.43646857062566,"Longitude":-3.698468964843048},{"Node":"526","Name":"ELOY GONZALO-JUAN DE AUSTRIA","Lines":"16/2 61/2","Latitude":40.43669328322569,"Longitude":-3.698553823381728},{"Node":"527","Name":"GRAL.MTNEZ.CAMPOS-FDEZ.DE LA HOZ","Lines":"5/2 16/1 61/1","Latitude":40.436806103412884,"Longitude":-3.694782043391211},{"Node":"528","Name":"GRAL.MTNEZ.CAMPOS-FDEZ.DE LA HOZ","Lines":"5/1 16/2 61/2","Latitude":40.4370811726382,"Longitude":-3.6939831202624616},{"Node":"529","Name":"GRAL.MTNEZ.CAMPOS-FORTUNY","Lines":"7/1 16/1 40/1 61/1 147/1","Latitude":40.436929217353814,"Longitude":-3.689265363831717},{"Node":"530","Name":"GRAL.MTNEZ.CAMPOS-FORTUNY","Lines":"5/1 16/2 61/2","Latitude":40.437175551826115,"Longitude":-3.68874673810269},{"Node":"532","Name":"MARIA DE MOLINA-SERRANO","Lines":"12/1 16/1 501/1","Latitude":40.43958805490153,"Longitude":-3.686038215968827},{"Node":"533","Name":"MARIA DE MOLINA-SERRANO","Lines":"12/2","Latitude":40.43981720400674,"Longitude":-3.6853767125363364},{"Node":"534","Name":"LOPEZ DE HOYOS-VELAZQUEZ","Lines":"16/1","Latitude":40.44030215678377,"Longitude":-3.6825906896275704},{"Node":"535","Name":"PZA.PERU-AV.PIO XII","Lines":"150/2","Latitude":40.46245153862537,"Longitude":-3.6755597717739},{"Node":"536","Name":"AV.DOCTOR ARCE-VELAZQUEZ","Lines":"16/2 19/1","Latitude":40.44786409023774,"Longitude":-3.682018608134913},{"Node":"537","Name":"GRAL.ORAA-Pº CASTELLANA","Lines":"16/2 61/2","Latitude":40.43772796981794,"Longitude":-3.6867503271315414},{"Node":"538","Name":"ELOY GONZALO-CARDENAL CISNEROS","Lines":"16/2 61/2","Latitude":40.435916579257594,"Longitude":-3.7018470700708552},{"Node":"540","Name":"FERNANDO EL CATOLICO-MAGALLANES","Lines":"16/2 61/2","Latitude":40.43575530325882,"Longitude":-3.7046632688478818},{"Node":"541","Name":"FERNANDO EL CATOLICO-VALLEHERMOSO","Lines":"16/2 61/2","Latitude":40.435996379106,"Longitude":-3.7079670742020454},{"Node":"542","Name":"FERNANDO EL CATOLICO-G.EL BUENO","Lines":"16/2 61/2","Latitude":40.436190068958474,"Longitude":-3.7116359042180025},{"Node":"543","Name":"FERNANDO EL CATOLICO-HILARION ESLAVA","Lines":"16/1 16/2 61/1 61/2","Latitude":40.436398886092235,"Longitude":-3.7157529496898323},{"Node":"544","Name":"CONCEPCION JERONIMA","Lines":"17/1 17/2","Latitude":40.41571345475341,"Longitude":-3.7056092408731955},{"Node":"545","Name":"TOLEDO-LA LATINA","Lines":"17/1 18/1 23/1 35/1 526/1","Latitude":40.413380053103666,"Longitude":-3.707093521165237},{"Node":"546","Name":"TOLEDO-LA LATINA","Lines":"17/2 18/2 23/2 35/2 526/2","Latitude":40.413652973279795,"Longitude":-3.7066602806981335},{"Node":"547","Name":"TOLEDO-HUMILLADERO","Lines":"17/1 18/1 23/1 35/1 60/1 526/1","Latitude":40.410682283164036,"Longitude":-3.70922799543681},{"Node":"548","Name":"TOLEDO-HUMILLADERO","Lines":"17/2 18/2 23/2 35/2 526/2","Latitude":40.41140776556733,"Longitude":-3.7084518414588348},{"Node":"549","Name":"Pº PONTONES-RONDA SEGOVIA","Lines":"17/1 41/1","Latitude":40.40843460746639,"Longitude":-3.7114141817003916},{"Node":"550","Name":"Pº PONTONES-Pº IMPERIAL","Lines":"17/1 41/1 516/1","Latitude":40.406740780362654,"Longitude":-3.71435679049073},{"Node":"551","Name":"Pº PONTONES-Pº IMPERIAL","Lines":"17/2 41/2 516/2","Latitude":40.406552490738115,"Longitude":-3.714211020652482},{"Node":"552","Name":"Pº PONTONES-Pº MELANCOLICOS","Lines":"17/1 36/1 516/1","Latitude":40.40606575801546,"Longitude":-3.718612319654759},{"Node":"553","Name":"Pº PONTONES-Pº MELANCOLICOS","Lines":"17/2 36/2 62/1 516/2","Latitude":40.40582259553894,"Longitude":-3.718599126977102},{"Node":"554","Name":"Pº ERMITA DEL SANTO-PTE.SAN ISIDRO","Lines":"17/1 25/2 516/1","Latitude":40.40567572525171,"Longitude":-3.7233704968222776},{"Node":"555","Name":"VIA CARPETANA-CARAMUEL","Lines":"17/1 516/1","Latitude":40.4035464498568,"Longitude":-3.7296053480057916},{"Node":"556","Name":"VIA CARPETANA-CARAMUEL","Lines":"17/2 516/2","Latitude":40.40367754731568,"Longitude":-3.728817190956226},{"Node":"557","Name":"VIA CARPETANA-GALLUR","Lines":"17/1 516/1","Latitude":40.40002186205918,"Longitude":-3.7341984178045147},{"Node":"558","Name":"VIA CARPETANA-GALLUR","Lines":"17/2 25/2 516/2","Latitude":40.40022364516686,"Longitude":-3.7336337966519952},{"Node":"559","Name":"VIA CARPETANA-MOCHUELO","Lines":"17/1 516/1","Latitude":40.398387006868134,"Longitude":-3.736278163335807},{"Node":"560","Name":"VIA CARPETANA-MOCHUELO","Lines":"17/2 25/2 516/2","Latitude":40.39799949407105,"Longitude":-3.7362975091498924},{"Node":"561","Name":"VIA CARPETANA-DR.ZOFIO","Lines":"17/1","Latitude":40.39694783311474,"Longitude":-3.7373347829317303},{"Node":"562","Name":"AV.DE LA PESETA-AV.CARABANCHEL ALTO","Lines":"35/1 118/2 155/2 517/1 517/2","Latitude":40.36392737147482,"Longitude":-3.7530491065657063},{"Node":"563","Name":"VIA CARPETANA-NTRA.SRA.VALVANERA","Lines":"17/1 516/1","Latitude":40.39556847232877,"Longitude":-3.7388986909686643},{"Node":"564","Name":"VIA CARPETANA-LAGUNA","Lines":"17/1","Latitude":40.39357959162122,"Longitude":-3.741381994606548},{"Node":"565","Name":"VIA CARPETANA-LAGUNA","Lines":"17/2","Latitude":40.394053964124545,"Longitude":-3.7404610550686455},{"Node":"566","Name":"VIA CARPETANA-PETIRROJO","Lines":"17/1","Latitude":40.391615128223755,"Longitude":-3.74286154772194},{"Node":"567","Name":"VIA CARPETANA-GTA.DEL EJERCITO","Lines":"17/1","Latitude":40.3901598482372,"Longitude":-3.7436114061562153},{"Node":"568","Name":"GTA.PRADERA DE VAQUERIZAS","Lines":"64/1 64/2","Latitude":40.49270330175566,"Longitude":-3.7203629595578214},{"Node":"569","Name":"BRAVO MURILLO-MARIA ZAYAS","Lines":"66/2 124/2 523/2","Latitude":40.46068900459169,"Longitude":-3.6992552391942484},{"Node":"570","Name":"OCAÑA Nº 69","Lines":"17/1 526/1","Latitude":40.387030740317414,"Longitude":-3.7524250883646704},{"Node":"571","Name":"OCAÑA Nº 100","Lines":"17/2 526/2","Latitude":40.38736771474928,"Longitude":-3.7518656678246574},{"Node":"572","Name":"OCAÑA Nº 21","Lines":"17/1","Latitude":40.38624635927522,"Longitude":-3.7566577409211854},{"Node":"573","Name":"OCAÑA FRENTE Nº 21","Lines":"17/2","Latitude":40.38611970185905,"Longitude":-3.7567387946749267},{"Node":"574","Name":"OCAÑA-CAMARENA","Lines":"17/1 526/1","Latitude":40.38728215280347,"Longitude":-3.7580713660452756},{"Node":"575","Name":"INTERCAMBIADOR DE ALUCHE","Lines":"17/1 117/1","Latitude":40.38815405911372,"Longitude":-3.7597447528385533},{"Node":"578","Name":"RAFAEL FINAT-AV.GRAL.FANJUL","Lines":"17/1 117/1","Latitude":40.38550453214578,"Longitude":-3.7639775218971767},{"Node":"579","Name":"RAFAEL FINAT-AV.GRAL.FANJUL","Lines":"17/2 117/2","Latitude":40.385690067690405,"Longitude":-3.7631666937655974},{"Node":"580","Name":"RAFAEL FINAT Nº 36","Lines":"17/1 117/1","Latitude":40.38337957191257,"Longitude":-3.7665217959047292},{"Node":"581","Name":"RAFAEL FINAT Nº 31","Lines":"17/2 117/2","Latitude":40.383372499722,"Longitude":-3.766229544239713},{"Node":"582","Name":"RAFAEL FINAT-JOSE DE CADALSO","Lines":"17/1 117/1","Latitude":40.38078290683115,"Longitude":-3.7695435534098616},{"Node":"583","Name":"RAFAEL FINAT-JOSE DE CADALSO","Lines":"17/2 117/2","Latitude":40.38094866267726,"Longitude":-3.7690035280622367},{"Node":"584","Name":"GRAL.ROMERO BASART-O.PLASENCIA","Lines":"17/1 139/1","Latitude":40.38141515960126,"Longitude":-3.7733524010469752},{"Node":"585","Name":"GRAL.ROMERO BASART-O.PLASENCIA","Lines":"17/2 34/2 117/1 117/2 139/2","Latitude":40.38062524903038,"Longitude":-3.7729204434979327},{"Node":"586","Name":"GRAL.ROMERO BASART-GRAL.FANJUL","Lines":"139/2","Latitude":40.383607269091186,"Longitude":-3.774264591154269},{"Node":"587","Name":"GRAL.ROMERO BASART-GRAL.FANJUL","Lines":"17/1 139/1","Latitude":40.38366218694273,"Longitude":-3.774135627258163},{"Node":"588","Name":"NTRA.SRA.DE LA LUZ-NTRA.SRA.FATIMA","Lines":"17/2","Latitude":40.386358089371335,"Longitude":-3.7463971866308543},{"Node":"589","Name":"NTRA.SRA.FATIMA-FONTIVEROS","Lines":"17/2 35/2 517/2 526/2","Latitude":40.38691846578272,"Longitude":-3.7447185845022672},{"Node":"590","Name":"Pº MUÑOZ GRANDES-OCA","Lines":"17/2 35/1 517/1 526/2","Latitude":40.38953319590269,"Longitude":-3.7429918395002373},{"Node":"591","Name":"VIDAUBA-DAMASQUILLO","Lines":"155/2","Latitude":40.38549458006049,"Longitude":-3.7627556699830067},{"Node":"592","Name":"VIA CARPETANA-Pº ERMITA DEL SANTO","Lines":"17/2 516/2","Latitude":40.40722237584764,"Longitude":-3.7238348964190595},{"Node":"593","Name":"TOLEDO-PUERTA DE TOLEDO","Lines":"17/2 18/2 23/2 35/2 41/2 516/2 526/2","Latitude":40.40768376529402,"Longitude":-3.710451660521373},{"Node":"594","Name":"TOLEDO-PUERTA DE TOLEDO","Lines":"18/1 23/1 35/1 526/1","Latitude":40.40795147703897,"Longitude":-3.7108681437908064},{"Node":"598","Name":"VIDAUBA Nº 14","Lines":"155/2","Latitude":40.38333817809171,"Longitude":-3.7618795717937052},{"Node":"599","Name":"CTA.SAN VICENTE-CADARSO","Lines":"25/1 39/1 46/1 69/1 75/1 138/1 518/1 519/1 520/1","Latitude":40.423307791973215,"Longitude":-3.7129972123367794},{"Node":"600","Name":"CTA.SAN VICENTE-CADARSO","Lines":"25/2 39/2 46/2 68/2 75/2 138/2 518/2 519/2 520/2","Latitude":40.42338454581063,"Longitude":-3.7122376896205096},{"Node":"601","Name":"CTA.SAN VICENTE-ARRIAZA","Lines":"25/1 39/1 46/1 69/1 75/1 138/1","Latitude":40.422340084568546,"Longitude":-3.7150616700274677},{"Node":"602","Name":"CTA.SAN VICENTE-ARRIAZA","Lines":"25/2 39/2 46/2 68/2 75/2 138/2","Latitude":40.42212077473734,"Longitude":-3.714104528715422},{"Node":"603","Name":"CTA.SAN VICENTE-PRINCIPE PIO","Lines":"25/1 39/1 46/1 69/1 75/1 138/1 518/1 519/1 520/1","Latitude":40.422325187284855,"Longitude":-3.7174662488537016},{"Node":"604","Name":"CTA.SAN VICENTE-PRINCIPE PIO","Lines":"25/2 39/2 46/2 68/2 75/2 138/2 518/2 519/2 520/2","Latitude":40.42198968018762,"Longitude":-3.717816320191449},{"Node":"605","Name":"VIRGEN DEL PUERTO-GTA.SAN VICENTE","Lines":"33/1 62/1","Latitude":40.42121605249189,"Longitude":-3.71908117172881},{"Node":"606","Name":"VIRGEN DEL PUERTO-CAMPO DEL MORO","Lines":"25/1 33/1 39/1 41/2 62/1 69/1 138/1","Latitude":40.41856460240309,"Longitude":-3.7195303248444307},{"Node":"607","Name":"VIRGEN DEL PUERTO-CAMPO DEL MORO","Lines":"25/2 33/2 39/2 41/1 62/2 68/2 138/2","Latitude":40.42120913294534,"Longitude":-3.718745147787792},{"Node":"608","Name":"VIRGEN DEL PUERTO-PTE.SEGOVIA","Lines":"25/1 33/1 39/1 138/1 518/1 519/1","Latitude":40.41637408449143,"Longitude":-3.7197427264514795},{"Node":"609","Name":"VIRGEN DEL PUERTO-PTE.SEGOVIA","Lines":"25/2 33/2 39/2 41/1 62/2 68/2 138/2 518/2 519/2","Latitude":40.41633098621346,"Longitude":-3.719429914959757},{"Node":"611","Name":"GRAL.ROMERO BASART-CASUARINA","Lines":"155/2","Latitude":40.380280965823694,"Longitude":-3.7637205963346427},{"Node":"612","Name":"Pº ERMITA DEL SANTO-AV.MANZANARES","Lines":"25/1","Latitude":40.411979996457156,"Longitude":-3.7222593880605808},{"Node":"613","Name":"Pº ERMITA DEL SANTO-AV.MANZANARES","Lines":"25/2","Latitude":40.41188199305567,"Longitude":-3.7220839059700594},{"Node":"614","Name":"Pº ERMITA DEL SANTO-SEPULVEDA","Lines":"25/1","Latitude":40.4100757534982,"Longitude":-3.722792961235192},{"Node":"615","Name":"Pº ERMITA DEL SANTO-SEPULVEDA","Lines":"25/2","Latitude":40.40998706862415,"Longitude":-3.7225680828085244},{"Node":"616","Name":"Pº ERMITA DEL SANTO-VIA CARPETANA","Lines":"25/1","Latitude":40.407702257463214,"Longitude":-3.723451120382161},{"Node":"617","Name":"Pº ERMITA DEL SANTO-VIA CARPETANA","Lines":"25/2","Latitude":40.40817246603273,"Longitude":-3.723173304479137},{"Node":"618","Name":"GALLUR-VIA CARPETANA","Lines":"25/1","Latitude":40.40033625940804,"Longitude":-3.7343432423629537},{"Node":"619","Name":"GALLUR FRENTE Nº 211","Lines":"25/1","Latitude":40.39993801319901,"Longitude":-3.7388757586732186},{"Node":"620","Name":"GALLUR FRENTE Nº 425","Lines":"25/1","Latitude":40.39872805627748,"Longitude":-3.7407125867026703},{"Node":"621","Name":"DUQUESA DE PARCENT-GTA.LOS CARMENES","Lines":"25/1 31/1 518/1","Latitude":40.39723593315349,"Longitude":-3.7429940235293575},{"Node":"622","Name":"DUQUESA DE PARCENT-GTA.LOS CARMENES","Lines":"25/2 31/2 518/2","Latitude":40.39705690022212,"Longitude":-3.742815302872896},{"Node":"623","Name":"DUQUESA DE PARCENT Nº 54","Lines":"25/1 31/1 518/1","Latitude":40.397393638032646,"Longitude":-3.7464836916252526},{"Node":"624","Name":"DUQUESA DE PARCENT Nº 54","Lines":"25/2 31/2 518/2","Latitude":40.39721445848476,"Longitude":-3.7463285267650948},{"Node":"625","Name":"DUQUESA DE PARCENT-CUART DE POBLET","Lines":"25/1 31/1 518/1","Latitude":40.397803167169435,"Longitude":-3.7500233044374247},{"Node":"626","Name":"DUQUESA DE PARCENT-CUART DE POBLET","Lines":"25/2 31/2 518/2","Latitude":40.39764115338884,"Longitude":-3.7500002960625407},{"Node":"627","Name":"CTRA.BARRIO DE LA FORTUNA-AV.AVIACION","Lines":"155/2","Latitude":40.374545483071614,"Longitude":-3.7645840660265653},{"Node":"628","Name":"AV.DE LA PESETA-CTRA.BARRIO LA FORTUNA","Lines":"155/2","Latitude":40.371283299176824,"Longitude":-3.764719169012792},{"Node":"629","Name":"CAMARENA-ILLESCAS","Lines":"25/1 518/1","Latitude":40.39414335148887,"Longitude":-3.7545061852946673},{"Node":"630","Name":"CAMARENA-ILLESCAS","Lines":"25/2 518/2","Latitude":40.39414426628252,"Longitude":-3.7543659779062355},{"Node":"631","Name":"ILLESCAS-VALMOJADO","Lines":"25/1 121/2 518/1","Latitude":40.394317952890866,"Longitude":-3.756738660149357},{"Node":"632","Name":"ILLESCAS-VALMOJADO","Lines":"25/2","Latitude":40.39417571498373,"Longitude":-3.7564472060740903},{"Node":"633","Name":"ILLESCAS-TEMBLEQUE","Lines":"25/1 121/2","Latitude":40.39489243358114,"Longitude":-3.7598063463031517},{"Node":"634","Name":"ILLESCAS-TEMBLEQUE","Lines":"25/2 121/1","Latitude":40.3946771611249,"Longitude":-3.7596625294991544},{"Node":"635","Name":"ILLESCAS-ESCALONA","Lines":"25/1 121/2","Latitude":40.39777987185026,"Longitude":-3.7632207053390667},{"Node":"636","Name":"ILLESCAS-ESCALONA","Lines":"25/2 121/1","Latitude":40.39761756544304,"Longitude":-3.7632424396941313},{"Node":"637","Name":"AV.DE LA PESETA-VALLE DEL BOI","Lines":"155/2","Latitude":40.367495455690374,"Longitude":-3.762599833142584},{"Node":"638","Name":"SESEÑA-ILLESCAS","Lines":"25/2","Latitude":40.39890815655039,"Longitude":-3.764258638985274},{"Node":"639","Name":"NTRA.SRA.VALVANERA-LAGUNA","Lines":"25/2 55/2 119/2","Latitude":40.39585172534394,"Longitude":-3.7410934803947917},{"Node":"640","Name":"AV.DE LA PESETA-PINAR DE SAN JOSE","Lines":"35/1 155/2 517/1","Latitude":40.36522528395128,"Longitude":-3.76121389390054},{"Node":"641","Name":"CORACEROS-AV.ARQUEROS","Lines":"139/1 139/2","Latitude":40.37906773189637,"Longitude":-3.7966600759789584},{"Node":"642","Name":"AV.ARQUEROS-Pº LANCEROS","Lines":"139/1","Latitude":40.382326761723256,"Longitude":-3.79305581026583},{"Node":"643","Name":"AV.ARQUEROS Nº 1","Lines":"139/1","Latitude":40.384417625396274,"Longitude":-3.790312909669983},{"Node":"644","Name":"AV.AVIACION-MEDINA DEL CAMPO","Lines":"39/1 139/1 519/1","Latitude":40.382990453069326,"Longitude":-3.7855732138269675},{"Node":"645","Name":"AV.AVIACION-MEDINA DEL CAMPO","Lines":"139/2","Latitude":40.38320748584758,"Longitude":-3.7854532119962387},{"Node":"646","Name":"AV.AVIACION-MONROY","Lines":"39/1 139/1 519/1","Latitude":40.37973175223293,"Longitude":-3.78253487537099},{"Node":"647","Name":"AV.AVIACION-MONROY","Lines":"39/2 139/2 519/2","Latitude":40.37993047834935,"Longitude":-3.782457067401248},{"Node":"649","Name":"AV.DE LA PESETA-AV.CARABANCHEL ALTO","Lines":"35/2 118/1 155/1","Latitude":40.36432150373587,"Longitude":-3.753397404400525},{"Node":"650","Name":"AV.AVIACION-SINFONIA","Lines":"139/1","Latitude":40.37660178875755,"Longitude":-3.775074954011324},{"Node":"651","Name":"AV.AVIACION-VALLE INCLAN","Lines":"117/1 139/2 519/2","Latitude":40.376668682949166,"Longitude":-3.774503215628864},{"Node":"652","Name":"RAFAEL FINAT-GRAL.SALIQUET","Lines":"139/1","Latitude":40.37704812218758,"Longitude":-3.771649731609907},{"Node":"653","Name":"RAFAEL FINAT-GRAL.SALIQUET","Lines":"117/1 139/2","Latitude":40.37717316278549,"Longitude":-3.7718125445378785},{"Node":"654","Name":"AV.GRAL.FANJUL-JOSE CADALSO","Lines":"139/1","Latitude":40.38474252029232,"Longitude":-3.7702012449615494},{"Node":"655","Name":"AV.GRAL.FANJUL-JOSE CADALSO","Lines":"139/2","Latitude":40.384755340068914,"Longitude":-3.770981316214042},{"Node":"656","Name":"AV.GRAL.FANJUL-EST.RENFE FANJUL","Lines":"139/1","Latitude":40.38548584917644,"Longitude":-3.766800152812565},{"Node":"657","Name":"AV.GRAL.FANJUL-EST.RENFE FANJUL","Lines":"139/2","Latitude":40.38566565765947,"Longitude":-3.7668563868742506},{"Node":"658","Name":"AV.POBLADOS-INTERCAMBIADOR ALUCHE","Lines":"121/1 131/1 139/1","Latitude":40.386605480372424,"Longitude":-3.759595397083421},{"Node":"659","Name":"AV.POBLADOS-INTERCAMBIADOR ALUCHE","Lines":"121/2 131/2 139/2","Latitude":40.38718912259662,"Longitude":-3.7598917857377576},{"Node":"660","Name":"AV.POBLADOS-COMISARIA","Lines":"121/1 131/1 139/1","Latitude":40.38362560428622,"Longitude":-3.7565223841817827},{"Node":"661","Name":"AV.POBLADOS-COMISARIA","Lines":"121/2 131/2 139/2","Latitude":40.3845068103043,"Longitude":-3.756779650615694},{"Node":"662","Name":"AV.POBLADOS-PARQUE EUGENIA MONTIJO","Lines":"121/1 131/1 139/1","Latitude":40.380196471631365,"Longitude":-3.7546344753439804},{"Node":"663","Name":"AV.POBLADOS-PARQUE EUGENIA MONTIJO","Lines":"121/2 131/2 139/2","Latitude":40.38028824678791,"Longitude":-3.7543763267272396},{"Node":"664","Name":"RONDA DON BOSCO-PARAGUAYA","Lines":"139/1","Latitude":40.377079920462535,"Longitude":-3.7517772098101303},{"Node":"665","Name":"Cº DE LAS CRUCES-MASCARAQUE","Lines":"139/1","Latitude":40.37631484537997,"Longitude":-3.7544368501749297},{"Node":"666","Name":"Cº DE LAS CRUCES-JOSE JORDAN","Lines":"139/1 139/2","Latitude":40.374582879679146,"Longitude":-3.7561561990725987},{"Node":"667","Name":"AV.POBLADOS-PARTERRE","Lines":"121/2 131/2 139/2","Latitude":40.37853659270366,"Longitude":-3.7494326345011313},{"Node":"668","Name":"Pº DE LOS HUSARES Nº 24","Lines":"139/2","Latitude":40.382138096850205,"Longitude":-3.789028070156351},{"Node":"669","Name":"Pº ALABARDEROS","Lines":"139/2","Latitude":40.38011782707636,"Longitude":-3.7933055707686942},{"Node":"670","Name":"GOYA-SERRANO","Lines":"21/1 53/1","Latitude":40.42717610604688,"Longitude":-3.6871369370902194},{"Node":"671","Name":"GOYA-PZA.DE COLON","Lines":"21/2 53/2","Latitude":40.42751680972607,"Longitude":-3.687412726806403},{"Node":"672","Name":"GOYA-VELAZQUEZ","Lines":"21/1 53/1","Latitude":40.42692924803073,"Longitude":-3.6831863754501972},{"Node":"673","Name":"GOYA-VELAZQUEZ","Lines":"21/2 53/2","Latitude":40.42725041786192,"Longitude":-3.6837201211687316},{"Node":"674","Name":"GOYA-PRINCIPE VERGARA","Lines":"21/1 53/1","Latitude":40.426785651452654,"Longitude":-3.6800373349579902},{"Node":"675","Name":"GOYA-PRINCIPE VERGARA","Lines":"21/2 53/2","Latitude":40.427042948046584,"Longitude":-3.679179346754292},{"Node":"676","Name":"GOYA-GRAL.DIAZ PORLIER","Lines":"21/1 53/1","Latitude":40.42658601186274,"Longitude":-3.6756735111931502},{"Node":"678","Name":"ALCALA-GOYA","Lines":"21/1 146/1","Latitude":40.427023509936966,"Longitude":-3.673261193263462},{"Node":"679","Name":"ALCALA-GOYA","Lines":"21/2 43/2 53/2 146/2","Latitude":40.4271560281106,"Longitude":-3.6737104885252707},{"Node":"680","Name":"ALCALA-HERMOSILLA","Lines":"21/1 43/1 53/1 146/1 505/1 507/1","Latitude":40.42785384244527,"Longitude":-3.6714539814829292},{"Node":"681","Name":"ALCALA-HERMOSILLA","Lines":"21/2 43/2 53/2 146/2 505/2 507/2","Latitude":40.428004658670844,"Longitude":-3.6718563051372204},{"Node":"682","Name":"ALCALA-PZA.MANUEL BECERRA","Lines":"21/1 43/1 53/1 146/1 505/1 507/1","Latitude":40.42927625018997,"Longitude":-3.6685208389019035},{"Node":"683","Name":"ALCALA-PZA.MANUEL BECERRA","Lines":"21/2 43/2 53/2 146/2 505/2 507/2","Latitude":40.42956370464825,"Longitude":-3.6686651558496814},{"Node":"684","Name":"ALCALA-PZA.MANUEL BECERRA","Lines":"21/2 38/2 53/2 106/2 110/2 146/2 210/2 505/2 507/2","Latitude":40.43060299746013,"Longitude":-3.666541570284177},{"Node":"685","Name":"ALCALA Nº 168","Lines":"12/1 21/1 38/1 53/1 106/1 110/1 146/1 210/1 505/1 507/1","Latitude":40.43088112933741,"Longitude":-3.665176741525504},{"Node":"686","Name":"ALCALA-BOCANGEL","Lines":"12/1 21/1 53/1","Latitude":40.43174689706515,"Longitude":-3.663452202545145},{"Node":"687","Name":"AV.DE LA PESETA-PINAR DE SAN JOSE","Lines":"35/2 155/1 517/2","Latitude":40.36579403230001,"Longitude":-3.7610353769000175},{"Node":"688","Name":"FCO.ALTIMIRAS-AV.LOS TOREROS","Lines":"53/1 74/1","Latitude":40.43572600965915,"Longitude":-3.662383026289652},{"Node":"689","Name":"BIARRITZ","Lines":"43/1 53/1 74/1 503/1","Latitude":40.43734579281,"Longitude":-3.6627042984919336},{"Node":"690","Name":"AV.BRUSELAS Nº 48","Lines":"43/1 53/1 74/1 503/1","Latitude":40.43993453341624,"Longitude":-3.662154316802796},{"Node":"691","Name":"AV.BRUSELAS Nº 51","Lines":"43/2 53/2 74/2 503/2","Latitude":40.440638709879835,"Longitude":-3.6618971043961612},{"Node":"692","Name":"AV.BRUSELAS-PZA.VENECIA","Lines":"43/1 503/1","Latitude":40.442316236800366,"Longitude":-3.6615739649514762},{"Node":"693","Name":"AV.BRUSELAS-PZA.VENECIA","Lines":"43/2 53/2 503/2","Latitude":40.44242298237459,"Longitude":-3.661812019749843},{"Node":"694","Name":"AV.BADAJOZ-TANATORIO","Lines":"53/1 122/1 503/1","Latitude":40.44274118215875,"Longitude":-3.6549784209724985},{"Node":"695","Name":"AV.BADAJOZ-TANATORIO","Lines":"53/2 122/2 503/2","Latitude":40.44289395957425,"Longitude":-3.6550447573515763},{"Node":"696","Name":"AV.BADAJOZ-MARTINEZ VILLERGAS","Lines":"53/1 122/1 503/1","Latitude":40.443851248654155,"Longitude":-3.653040026330814},{"Node":"697","Name":"TORRELAGUNA-AV.BADAJOZ","Lines":"11/1 11/2","Latitude":40.445347922114046,"Longitude":-3.652831643277496},{"Node":"698","Name":"TORRELAGUNA-AV.BADAJOZ","Lines":"53/2 122/2","Latitude":40.44476383950757,"Longitude":-3.652565391863432},{"Node":"699","Name":"TORRELAGUNA-CONDESA VENADITO","Lines":"53/1 122/1","Latitude":40.44651494537978,"Longitude":-3.653565795266708},{"Node":"700","Name":"TORRELAGUNA-CONDESA VENADITO","Lines":"53/2 122/2","Latitude":40.44623534129333,"Longitude":-3.653623226713294},{"Node":"701","Name":"TORRELAGUNA-RAMIREZ DE ARELLANO","Lines":"53/1 122/1","Latitude":40.449684555728176,"Longitude":-3.655432628326702},{"Node":"702","Name":"TORRELAGUNA-RAMIREZ DE ARELLANO","Lines":"53/2","Latitude":40.44933322382753,"Longitude":-3.65542921503721},{"Node":"703","Name":"TORRELAGUNA Nº 70","Lines":"53/1","Latitude":40.45137239379518,"Longitude":-3.6564644062864393},{"Node":"704","Name":"TORRELAGUNA Nº 85","Lines":"53/2","Latitude":40.45155115058256,"Longitude":-3.656714979263345},{"Node":"705","Name":"TORRELAGUNA-SORZANO","Lines":"53/1","Latitude":40.45301103163776,"Longitude":-3.658224583351913},{"Node":"706","Name":"TORRELAGUNA-RAFAEL BERGAMIN","Lines":"53/2","Latitude":40.45295543585878,"Longitude":-3.658495286731091},{"Node":"707","Name":"TORRELAGUNA-JOSE SILVA","Lines":"53/1","Latitude":40.455519227891195,"Longitude":-3.659157178182216},{"Node":"708","Name":"TORRELAGUNA-JOSE SILVA","Lines":"53/2","Latitude":40.45504910459809,"Longitude":-3.659447425525329},{"Node":"709","Name":"AV.BRASILIA-BRISTOL","Lines":"53/2 122/2","Latitude":40.442846341085364,"Longitude":-3.6602478982433646},{"Node":"710","Name":"LUIS CALVO-MTNEZ.IZQUIERDO","Lines":"53/2 74/2","Latitude":40.437358256964444,"Longitude":-3.6636724267604324},{"Node":"711","Name":"AV.LOS TOREROS-VILLAFRANCA","Lines":"53/2 74/2","Latitude":40.435341865132756,"Longitude":-3.663388499245385},{"Node":"712","Name":"JULIO CAMBA-ALCALA","Lines":"53/2","Latitude":40.432596335908734,"Longitude":-3.6630007511797467},{"Node":"714","Name":"SUERO DE QUIÑONES-LOPEZ DE HOYOS","Lines":"1/1 1/2","Latitude":40.44583105487541,"Longitude":-3.6738261696922754},{"Node":"715","Name":"CARTAGENA-LOPEZ DE HOYOS","Lines":"1/1","Latitude":40.444396024658964,"Longitude":-3.674271719099745},{"Node":"716","Name":"CARTAGENA-LOPEZ DE HOYOS","Lines":"1/2","Latitude":40.44435840856776,"Longitude":-3.674542554380502},{"Node":"717","Name":"CARTAGENA-CLARA DEL REY","Lines":"1/1 72/1","Latitude":40.44147925424772,"Longitude":-3.672355968662496},{"Node":"718","Name":"CARTAGENA-CLARA DEL REY","Lines":"1/2 72/2","Latitude":40.44145137833559,"Longitude":-3.672501902830841},{"Node":"719","Name":"AV.DE LA PESETA-VALLE DEL BOI","Lines":"155/1","Latitude":40.36769660701071,"Longitude":-3.762152166239791},{"Node":"720","Name":"AV.DE LA PESETA-CTRA.BARRIO LA FORTUNA","Lines":"155/1","Latitude":40.3715008874028,"Longitude":-3.7645119617039535},{"Node":"721","Name":"CARTAGENA-MQUES.AHUMADA","Lines":"1/1","Latitude":40.439107401302664,"Longitude":-3.669679391906297},{"Node":"722","Name":"CARTAGENA-MQUES.AHUMADA","Lines":"1/2","Latitude":40.43901642829865,"Longitude":-3.669831770354766},{"Node":"725","Name":"AV.LOS TOREROS-FCO.SILVELA","Lines":"1/2 74/2","Latitude":40.4338639735189,"Longitude":-3.669709898756248},{"Node":"726","Name":"CARTAGENA-FCO.SILVELA","Lines":"1/1 43/1 74/1","Latitude":40.4329210837757,"Longitude":-3.6691817932293658},{"Node":"727","Name":"J.ORTEGA Y GASSET-FCO.SILVELA","Lines":"1/1 74/1","Latitude":40.43148619789643,"Longitude":-3.6696049613376744},{"Node":"728","Name":"J.ORTEGA Y GASSET-FCO.SILVELA","Lines":"1/2 74/2","Latitude":40.43164673932797,"Longitude":-3.6698847876351297},{"Node":"729","Name":"J.ORTEGA Y GASSET-CONDE PEÑALVER","Lines":"1/1 74/1","Latitude":40.43170890178511,"Longitude":-3.674687300700738},{"Node":"730","Name":"J.ORTEGA Y GASSET-CONDE PEÑALVER","Lines":"1/2 74/2","Latitude":40.431943260454325,"Longitude":-3.6746660637548305},{"Node":"731","Name":"J.ORTEGA Y GASSET-PZA.MQUES.SALAMANCA","Lines":"1/1 74/1","Latitude":40.43191592201513,"Longitude":-3.6793344780689092},{"Node":"732","Name":"J.ORTEGA Y GASSET-PZA.MQUES.SALAMANCA","Lines":"1/2 74/2","Latitude":40.43216788272873,"Longitude":-3.6793841722867717},{"Node":"733","Name":"J.ORTEGA Y GASSET-CLAUDIO COELLO","Lines":"1/2 74/2","Latitude":40.4324331667498,"Longitude":-3.6848101057080704},{"Node":"734","Name":"PRINCESA Nº 32","Lines":"1/2 44/1 68/2 133/1","Latitude":40.43012672104857,"Longitude":-3.713143497197416},{"Node":"735","Name":"PRINCESA-ALBERTO AGUILERA","Lines":"1/1 44/2 69/1 133/2 521/2","Latitude":40.43193632563976,"Longitude":-3.714797831974315},{"Node":"736","Name":"PRINCESA-ALBERTO AGUILERA","Lines":"1/2 44/1 68/2 133/1 521/1","Latitude":40.43205529350331,"Longitude":-3.714498456282141},{"Node":"737","Name":"PRINCESA-ALTAMIRANO","Lines":"1/1 44/2 69/1 133/2 521/2","Latitude":40.43399020645326,"Longitude":-3.7162815363965045},{"Node":"738","Name":"PRINCESA-HILARION ESLAVA","Lines":"1/2 44/1 68/2 133/1 521/1","Latitude":40.43404659380004,"Longitude":-3.7159048556658862},{"Node":"740","Name":"PRINCESA-PZA.MONCLOA","Lines":"83/2 133/2","Latitude":40.43638468786076,"Longitude":-3.718042490836123},{"Node":"743","Name":"ISAAC PERAL-PZA.CRISTO REY","Lines":"1/2 44/1 68/2 82/1 132/1","Latitude":40.440314113595605,"Longitude":-3.7163486532468473},{"Node":"745","Name":"SUERO DE QUIÑONES-PECHUAN","Lines":"1/1","Latitude":40.44676965283664,"Longitude":-3.675085517795125},{"Node":"751","Name":"ALCALA-AV.MENENDEZ PELAYO","Lines":"15/1 52/1 146/1 502/1 503/1 505/1 507/1","Latitude":40.424247922135486,"Longitude":-3.679557928170375},{"Node":"752","Name":"ALCALA-CASTELLO","Lines":"15/2 52/2 146/2 502/2 503/2 505/2 507/2","Latitude":40.42427162744901,"Longitude":-3.6801228253002707},{"Node":"753","Name":"ALCALA-AV.FELIPE II","Lines":"146/1 152/2","Latitude":40.42569038544057,"Longitude":-3.6763117388581503},{"Node":"754","Name":"ALCALA-AV.FELIPE II","Lines":"146/2 503/2 505/2 507/2","Latitude":40.42638026264291,"Longitude":-3.6754238906003964},{"Node":"755","Name":"ALCALA-AV.FELIPE II","Lines":"402/1 402/2 403/1 403/2 505/1 507/1","Latitude":40.426311498832874,"Longitude":-3.6748573481518783},{"Node":"756","Name":"PZA.DE TOROS DE LAS VENTAS","Lines":"38/1 106/1 110/1 146/1 210/1 505/1 507/1","Latitude":40.43241229176616,"Longitude":-3.662102925824521},{"Node":"757","Name":"PZA.DE TOROS DE LAS VENTAS","Lines":"21/2 38/2 106/2 110/2 146/2 210/2 505/2 507/2","Latitude":40.432899899743276,"Longitude":-3.661907281984541},{"Node":"758","Name":"ALCALA Nº 238","Lines":"38/1 146/1 505/1","Latitude":40.43368258511064,"Longitude":-3.655777118898492},{"Node":"759","Name":"ALCALA Nº 261","Lines":"38/2 106/2 146/2 505/2 507/2","Latitude":40.43385297142907,"Longitude":-3.6559155377555794},{"Node":"760","Name":"ALCALDE LOPEZ CASERO-ALCALA","Lines":"146/1","Latitude":40.43443066248971,"Longitude":-3.654129061768348},{"Node":"761","Name":"ALCALDE LOPEZ CASERO-ALCALA","Lines":"146/2","Latitude":40.434393734355105,"Longitude":-3.65428669066365},{"Node":"762","Name":"ALCALDE LOPEZ CASERO-PZA.JOSE BANUS","Lines":"146/1","Latitude":40.4358162420032,"Longitude":-3.6544490375440937},{"Node":"763","Name":"ALCALDE LOPEZ CASERO-PZA.JOSE BANUS","Lines":"146/2","Latitude":40.43584225965838,"Longitude":-3.654627323485459},{"Node":"764","Name":"JOSE DEL HIERRO-VIRGEN DE LLUC","Lines":"48/1 146/1","Latitude":40.436714729917185,"Longitude":-3.6516869908140412},{"Node":"765","Name":"JOSE DEL HIERRO-VIRGEN DE LLUC","Lines":"21/2","Latitude":40.4370132741997,"Longitude":-3.651465853611954},{"Node":"766","Name":"JOSE DEL HIERRO-VIRGEN DEL SAGRARIO","Lines":"48/1 146/1","Latitude":40.43828191469385,"Longitude":-3.6485516381771217},{"Node":"767","Name":"JOSE DEL HIERRO-VIRGEN DEL SAGRARIO","Lines":"21/2","Latitude":40.438325753370854,"Longitude":-3.6487666510144745},{"Node":"768","Name":"JOSE DEL HIERRO-HERMANOS DE PABLO","Lines":"48/1 146/1","Latitude":40.439704193782795,"Longitude":-3.6455373805502758},{"Node":"769","Name":"JOSE DEL HIERRO-MANDARINA","Lines":"48/1 146/1","Latitude":40.441962137823964,"Longitude":-3.6429000228878063},{"Node":"770","Name":"JOSE DEL HIERRO-MANDARINA","Lines":"48/2 146/2","Latitude":40.44204255237662,"Longitude":-3.643019882108526},{"Node":"771","Name":"JOSE DEL HIERRO-ARTURO SORIA","Lines":"48/1 146/1","Latitude":40.44300292135348,"Longitude":-3.640421918346371},{"Node":"772","Name":"CTRA.BARRIO LA FORTUNA-JOAQUIN TURINA","Lines":"155/1","Latitude":40.37456513503957,"Longitude":-3.764336917077216},{"Node":"773","Name":"MQUES.DE HOYOS Nº 18","Lines":"146/1","Latitude":40.44503415004227,"Longitude":-3.638033286563106},{"Node":"774","Name":"GRAL.ROMERO BASART-CASUARINA","Lines":"155/1","Latitude":40.380110265067145,"Longitude":-3.763649163450122},{"Node":"775","Name":"VIRGEN DEL PORTILLO-HNOS.DE PABLO","Lines":"48/2 146/2","Latitude":40.44118826508381,"Longitude":-3.6459701659247816},{"Node":"776","Name":"VIRGEN DEL PORTILLO-VIRGEN DEL SAGRARIO","Lines":"48/2 146/2","Latitude":40.439738240715776,"Longitude":-3.6491103770698174},{"Node":"777","Name":"VIRGEN DEL PORTILLO-VIRGEN DE LAS NIEVES","Lines":"48/2 146/2","Latitude":40.437851495643216,"Longitude":-3.6529949398076793},{"Node":"778","Name":"ALCALA-PRINCIPE DE VERGARA","Lines":"15/2 146/2 152/1","Latitude":40.425056657231366,"Longitude":-3.678377795017195},{"Node":"779","Name":"SANCHO DAVILA-MQUES.DE ZAFRA","Lines":"12/1 12/2","Latitude":40.42706098246295,"Longitude":-3.660517905436147},{"Node":"780","Name":"MQUES.DE ZAFRA-RUFINO BLANCO","Lines":"12/2","Latitude":40.4276959000865,"Longitude":-3.6629172603039954},{"Node":"781","Name":"MQUES.DE ZAFRA-MQUES.MONDEJAR","Lines":"12/2","Latitude":40.428553062355405,"Longitude":-3.665825778685078},{"Node":"782","Name":"FCO.SILVELA-PZA.M.BECERRA","Lines":"12/2 43/1 56/2 69/2","Latitude":40.43131312921378,"Longitude":-3.6683759563809426},{"Node":"784","Name":"FCO.SILVELA-AZCONA","Lines":"12/2 56/2 69/2","Latitude":40.434450946670246,"Longitude":-3.6710244191708683},{"Node":"785","Name":"FCO.SILVELA-DIEGO DE LEON","Lines":"72/1 72/2 73/1 73/2","Latitude":40.43678982808202,"Longitude":-3.673169955967469},{"Node":"786","Name":"FCO.SILVELA-DIEGO DE LEON","Lines":"12/1 68/1","Latitude":40.435747559850974,"Longitude":-3.672692665595461},{"Node":"787","Name":"FCO.SILVELA-DIEGO DE LEON","Lines":"72/2 73/2","Latitude":40.43694739920605,"Longitude":-3.6739579535838027},{"Node":"788","Name":"FCO.SILVELA-AV.AMERICA","Lines":"12/2 69/2 72/1","Latitude":40.438499725798906,"Longitude":-3.6750263703331467},{"Node":"789","Name":"FCO.SILVELA-AV.AMERICA","Lines":"12/1 68/1 72/2 73/2","Latitude":40.438791563501056,"Longitude":-3.675960763797706},{"Node":"790","Name":"MARIA DE MOLINA-PRINCIPE VERGARA","Lines":"12/2","Latitude":40.43943230754367,"Longitude":-3.677311347294134},{"Node":"791","Name":"MARIA DE MOLINA-PRINCIPE VERGARA","Lines":"12/1 504/1","Latitude":40.439226445759914,"Longitude":-3.678618070249888},{"Node":"792","Name":"MARIA DE MOLINA-VELAZQUEZ","Lines":"12/2 504/2","Latitude":40.439671039345036,"Longitude":-3.6811458081421824},{"Node":"793","Name":"MARIA DE MOLINA-VELAZQUEZ","Lines":"12/1 504/1","Latitude":40.43937348166346,"Longitude":-3.681189968590718},{"Node":"794","Name":"Pº CASTELLANA-MARIA DE MOLINA","Lines":"12/2 45/1","Latitude":40.44030935961615,"Longitude":-3.688969735628369},{"Node":"795","Name":"Pº CASTELLANA-VITRUVIO","Lines":"12/2 45/1","Latitude":40.44231318359441,"Longitude":-3.689839176691173},{"Node":"796","Name":"RIOS ROSAS-MODESTO LAFUENTE","Lines":"12/2 45/1","Latitude":40.443691861859214,"Longitude":-3.6943034460038415},{"Node":"797","Name":"RIOS ROSAS-ALONSO CANO","Lines":"12/2 45/1","Latitude":40.44381389505528,"Longitude":-3.6964814469888623},{"Node":"798","Name":"RIOS ROSAS-SANTA ENGRACIA","Lines":"12/2 45/1","Latitude":40.44400830295019,"Longitude":-3.7000917197416343},{"Node":"799","Name":"PZA.JUAN ZORRILLA","Lines":"12/2","Latitude":40.44400649349616,"Longitude":-3.7033580067507055},{"Node":"800","Name":"AV.FILIPINAS-VALLEHERMOSO","Lines":"12/2","Latitude":40.44260294944536,"Longitude":-3.7074821833650176},{"Node":"801","Name":"AV.FILIPINAS-GUZMAN EL BUENO","Lines":"12/2","Latitude":40.441311277901875,"Longitude":-3.710970640822971},{"Node":"802","Name":"VIDAUBA-RODRIGO DE ARANA","Lines":"155/1","Latitude":40.38316926868126,"Longitude":-3.7615360175376837},{"Node":"803","Name":"SAN FCO.DE SALES-PZA.CRISTO REY","Lines":"12/1 44/1 521/1","Latitude":40.441553887986736,"Longitude":-3.7154538849085013},{"Node":"805","Name":"CEA BERMUDEZ-GUZMAN EL BUENO","Lines":"12/1","Latitude":40.44072399000353,"Longitude":-3.7112474408746685},{"Node":"806","Name":"CEA BERMUDEZ-VALLEHERMOSO","Lines":"12/1","Latitude":40.44055767615091,"Longitude":-3.7075196967000243},{"Node":"807","Name":"JOSE ABASCAL-BRAVO MURILLO","Lines":"3/2 12/1","Latitude":40.44039048032249,"Longitude":-3.70243598643775},{"Node":"808","Name":"JOSE ABASCAL-SANTA ENGRACIA","Lines":"12/1","Latitude":40.44025585185741,"Longitude":-3.699380699942737},{"Node":"809","Name":"JOSE ABASCAL-MODESTO LAFUENTE","Lines":"12/1","Latitude":40.4400504224013,"Longitude":-3.6946032045901216},{"Node":"810","Name":"JOSE ABASCAL-Pº CASTELLANA","Lines":"12/1","Latitude":40.43984917875368,"Longitude":-3.6906004487652577},{"Node":"811","Name":"FCO.SILVELA-PADILLA","Lines":"12/1 43/2 48/2 56/1 68/1","Latitude":40.43317440652443,"Longitude":-3.6705519256697228},{"Node":"812","Name":"PZA.AMERICA ESPAÑOLA","Lines":"12/1","Latitude":40.431092356943175,"Longitude":-3.661335453482066},{"Node":"813","Name":"SANCHO DAVILA Nº 18","Lines":"12/1","Latitude":40.42931163396876,"Longitude":-3.6607992862479217},{"Node":"814","Name":"AV.MENENDEZ PELAYO-A.SAINZ BARANDA","Lines":"20/1 26/2 63/1 68/1 152/1","Latitude":40.41864948551194,"Longitude":-3.677138240592764},