{"TABLA":{"RESULTADO":"0","DESCRIPCION":"Resultado de la operacion Correcta","REG":[{"Node":"1","Name":"AV.VALDEMARIN-ALTAIR","Loc":{"Longitude":"-3.78288324038992","Latitude":"40.4701435453176"},"Lines":"161"},{"Node":"2","Name":"AV.VALDEMARIN-LA SALLE","Loc":{"Longitude":"-3.78595939483902","Latitude":"40.4686722584631"},"Lines":"161"},{"Node":"3","Name":"BLANCA DE CASTILLA-Cº DE LA ZARZUELA","Loc":{"Longitude":"-3.78385485986947","Latitude":"40.4649568308556"},"Lines":"161"},{"Node":"4","Name":"PLEYADES-ANA TERESA","Loc":{"Longitude":"-3.7840971434611","Latitude":"40.461441702189"},"Lines":"161"},{"Node":"5","Name":"PLEYADES-AV.OSA MAYOR","Loc":{"Longitude":"-3.78429132303362","Latitude":"40.4594358959479"},"Lines":"161"},{"Node":"6","Name":"BLANCA DE CASTILLA-Cº DE LA ZARZUELA","Loc":{"Longitude":"-3.78360342963404","Latitude":"40.4649855601981"},"Lines":"161"},{"Node":"7","Name":"AV.VALDEMARIN-LA SALLE","Loc":{"Longitude":"-3.78571249363938","Latitude":"40.4684577204484"},"Lines":"161"},{"Node":"8","Name":"AV.VALDEMARIN-BLANCA DE CASTILLA","Loc":{"Longitude":"-3.78208948209881","Latitude":"40.4699146794948"},"Lines":"161"},{"Node":"11","Name":"AV.BURGOS-BUGANVILLA","Loc":{"Longitude":"-3.6758262570833","Latitude":"40.4716559155998"},"Lines":"14"},{"Node":"12","Name":"AV.NUESTRA SRA.DE BEGOÑA-LASARTE","Loc":{"Longitude":"-3.80972286731229","Latitude":"40.4698868057553"},"Lines":"162"},{"Node":"13","Name":"GUECHO-GOBELAS","Loc":{"Longitude":"-3.81781762731332","Latitude":"40.4710550989514"},"Lines":"162"},{"Node":"14","Name":"GUECHO-GOBELAS","Loc":{"Longitude":"-3.81757035393849","Latitude":"40.4710928817904"},"Lines":"162"},{"Node":"16","Name":"AV.VICTORIA-PADRE HUIDOBRO","Loc":{"Longitude":"-3.81317907849388","Latitude":"40.4669346717542"},"Lines":"162"},{"Node":"18","Name":"AV.VICTORIA-PADRE HUIDOBRO","Loc":{"Longitude":"-3.81359515950879","Latitude":"40.4672020152143"},"Lines":"162"},{"Node":"19","Name":"ACCESO A LA A6-AV.VICTORIA","Loc":{"Longitude":"-3.81895044027102","Latitude":"40.469137197072"},"Lines":"162"},{"Node":"20","Name":"GOBELAS-GUECHO","Loc":{"Longitude":"-3.81713851237838","Latitude":"40.4705013431228"},"Lines":"162"},{"Node":"21","Name":"MOTRICO-LEQUEITIO","Loc":{"Longitude":"-3.81317265986086","Latitude":"40.4693400997572"},"Lines":"162"},{"Node":"22","Name":"AMOREBIETA-AV.NUESTRA SRA.DE BEGOÑA","Loc":{"Longitude":"-3.81032563898799","Latitude":"40.4689997122779"},"Lines":"162"},{"Node":"23","Name":"ESCUELA UNIVERSITARIA DE ESTADISTICA","Loc":{"Longitude":"-3.73586437127533","Latitude":"40.4481908682215"},"Lines":"83 | 133 | 162"},{"Node":"24","Name":"GTA.MAR DE CRISTAL","Loc":{"Longitude":"-3.63769028391414","Latitude":"40.4695118792371"},"Lines":"125 | 172 | 172SF"},{"Node":"28","Name":"Pº CASTELLANA-JUZGADOS","Loc":{"Longitude":"-3.68972639781606","Latitude":"40.4650604583015"},"Lines":"5 | 27 | 147 | N22 | N24"},{"Node":"29","Name":"Pº CASTELLANA-JUZGADOS","Loc":{"Longitude":"-3.68919516042857","Latitude":"40.4651266846777"},"Lines":"5 | 27 | 147 | N22 | N24"},{"Node":"30","Name":"MATEO INURRIA-PZA.DE CASTILLA","Loc":{"Longitude":"-3.68813420813401","Latitude":"40.4662410987267"},"Lines":"5 | 70 | 107 | 129"},{"Node":"31","Name":"MATEO INURRIA-PZA.DE CASTILLA","Loc":{"Longitude":"-3.68832522654066","Latitude":"40.4664651874285"},"Lines":"5 | 66 | 70 | 107 | 129 | 174"},{"Node":"32","Name":"Pº CASTELLANA-ROSARIO PINO","Loc":{"Longitude":"-3.68999243036924","Latitude":"40.4618742013768"},"Lines":"5 | 27 | 147 | N22 | N24"},{"Node":"33","Name":"Pº CASTELLANA-ROSARIO PINO","Loc":{"Longitude":"-3.68953401416295","Latitude":"40.4618499055306"},"Lines":"5 | 27 | 147 | N22 | N24"},{"Node":"34","Name":"PZA.DE CUZCO","Loc":{"Longitude":"-3.6903181502783","Latitude":"40.4583272271004"},"Lines":"5 | 27 | 40 | 147 | N22 | N24"},{"Node":"35","Name":"PZA.DE CUZCO","Loc":{"Longitude":"-3.68972082738504","Latitude":"40.4598938448843"},"Lines":"5 | 27 | 147 | N22 | N24"},{"Node":"36","Name":"Pº CASTELLANA-GRAL.YAGUE","Loc":{"Longitude":"-3.69048636484967","Latitude":"40.4566100130494"},"Lines":"5 | 27 | 40 | 147 | N22 | N24"},{"Node":"37","Name":"Pº CASTELLANA-GRAL.YAGUE","Loc":{"Longitude":"-3.69011395962241","Latitude":"40.4557653889151"},"Lines":"27 | 40 | 126 | 147 | N22 | N24"},{"Node":"38","Name":"Pº CASTELLANA-RAFAEL SALGADO","Loc":{"Longitude":"-3.69070017978222","Latitude":"40.4545952297212"},"Lines":"27 | 40 | 126 | 147"},{"Node":"39","Name":"Pº CASTELLANA-RAFAEL SALGADO","Loc":{"Longitude":"-3.69023167789544","Latitude":"40.4545890146399"},"Lines":"27 | 40 | 126 | 147"},{"Node":"40","Name":"SAN ROMUALDO-JULIAN CAMARILLO","Loc":{"Longitude":"-3.62093949143469","Latitude":"40.437607422539"},"Lines":"105"},{"Node":"41","Name":"Pº CASTELLANA-PZA.DE LIMA","Loc":{"Longitude":"-3.69106443432962","Latitude":"40.4515074777418"},"Lines":"14 | 27 | 40 | 126 | 147 | 150 | N22 | N24"},{"Node":"42","Name":"Pº CASTELLANA-PZA.DE LIMA","Loc":{"Longitude":"-3.69051911738704","Latitude":"40.4515197402062"},"Lines":"27 | 40 | 126 | 147 | 150 | N22 | N24"},{"Node":"44","Name":"Pº CASTELLANA-PZA.DE LIMA","Loc":{"Longitude":"-3.69036708497747","Latitude":"40.453124246931"},"Lines":"27 | 40 | 126 | 147 | 150"},{"Node":"45","Name":"PZA.DE LIMA","Loc":{"Longitude":"-3.69040091342451","Latitude":"40.451637561974"},"Lines":"120"},{"Node":"46","Name":"Pº CASTELLANA-AZCA","Loc":{"Longitude":"-3.69120087719264","Latitude":"40.4494255861214"},"Lines":"14 | 27 | 40 | 126 | 147 | 150 | N22 | N24"},{"Node":"47","Name":"Pº CASTELLANA-AZCA","Loc":{"Longitude":"-3.690743512708","Latitude":"40.4493877750635"},"Lines":"27 | 40 | 126 | 147 | 150 | N22 | N24"},{"Node":"48","Name":"Pº CASTELLANA-RAIMUNDO F.VILLAVERDE","Loc":{"Longitude":"-3.69149742115174","Latitude":"40.4466039997913"},"Lines":"14 | 27 | 40 | 147 | 150"},{"Node":"49","Name":"Pº CASTELLANA-NUEVOS MINISTERIOS","Loc":{"Longitude":"-3.69169561567856","Latitude":"40.4454091236309"},"Lines":"7 | 14 | 27 | 40 | 147 | 150 | N22 | N24"},{"Node":"50","Name":"Pº CASTELLANA-Pº DE LA HABANA","Loc":{"Longitude":"-3.69100631164755","Latitude":"40.4468681926684"},"Lines":"27 | 40 | 126 | 147 | 150 | N22 | N24"},{"Node":"51","Name":"Pº CASTELLANA-NUEVOS MINISTERIOS","Loc":{"Longitude":"-3.69182365311429","Latitude":"40.4440930445835"},"Lines":"7 | 14 | 27 | 40 | 147 | 150 | N22 | N24"},{"Node":"52","Name":"Pº CASTELLANA-JORGE MANRIQUE","Loc":{"Longitude":"-3.69114869208245","Latitude":"40.4437817603591"},"Lines":"7 | 14 | 27 | 40 | 147 | 150 | N22 | N24"},{"Node":"53","Name":"PZA.SAN JUAN DE LA CRUZ","Loc":{"Longitude":"-3.69219319534525","Latitude":"40.4410277746673"},"Lines":"7 | 14 | 27 | 40 | 147 | 150 | N22 | N24"},{"Node":"54","Name":"PZA.SAN JUAN DE LA CRUZ","Loc":{"Longitude":"-3.69136922174051","Latitude":"40.4411678325366"},"Lines":"7 | 14 | 27 | 40 | 147 | 150 | N22 | N24"},{"Node":"56","Name":"PZA.DOCTOR MARAÑON","Loc":{"Longitude":"-3.69040015487589","Latitude":"40.4383943354315"},"Lines":"7 | 14 | 27 | 40 | 147 | 150 | N22 | N24"},{"Node":"57","Name":"GTA.EMILIO CASTELAR","Loc":{"Longitude":"-3.68926359716893","Latitude":"40.4350137172231"},"Lines":"5 | 14 | 27 | 45 | 150 | N1 | N22 | N24"},{"Node":"58","Name":"GTA.EMILIO CASTELAR","Loc":{"Longitude":"-3.68868499349503","Latitude":"40.4357964397659"},"Lines":"7 | 16 | 40 | 147"},{"Node":"59","Name":"Pº CASTELLANA-Pº EDUARDO DATO","Loc":{"Longitude":"-3.68880999822339","Latitude":"40.433020918832"},"Lines":"5 | 14 | 27 | 45 | 150 | N1 | N22 | N24"},{"Node":"60","Name":"Pº CASTELLANA-Pº EDUARDO DATO","Loc":{"Longitude":"-3.68807582052125","Latitude":"40.4332505092102"},"Lines":"5 | 14 | 27 | 45 | 150 | N1 | N22 | N24"},{"Node":"61","Name":"Pº CASTELLANA-MINISTERIO DEL INTERIOR","Loc":{"Longitude":"-3.68979795967654","Latitude":"40.4291726897342"},"Lines":"5 | 14 | 27 | 45 | 150 | N1 | N22 | N24 | N25 | N26"},{"Node":"62","Name":"Pº CASTELLANA-MQUES.VILLAMAGNA","Loc":{"Longitude":"-3.68907087764756","Latitude":"40.4292626043241"},"Lines":"5 | 14 | 27 | 45 | 150 | N1 | N22 | N24"},{"Node":"63","Name":"Pº CASTELLANA-PZA.DE COLON","Loc":{"Longitude":"-3.69062450098304","Latitude":"40.4259064951886"},"Lines":"5 | 14 | 27 | 45 | 150 | N1 | N22 | N24 | N25 | N26"},{"Node":"65","Name":"Pº RECOLETOS-BIBLIOTECA NACIONAL","Loc":{"Longitude":"-3.69052060156927","Latitude":"40.4238845871756"},"Lines":"5 | 14 | 27 | 45 | 53 | 150 | N1 | N4 | N22 | N23 | N24 | N25 | N26"},{"Node":"66","Name":"Pº CASTELLANA-PZA.DE COLON","Loc":{"Longitude":"-3.68987341517404","Latitude":"40.4261316934024"},"Lines":"5 | 14 | 27 | 45 | 150 | N1 | N22 | N24"},{"Node":"68","Name":"Pº RECOLETOS-BARBARA DE BRAGANZA","Loc":{"Longitude":"-3.69151842065154","Latitude":"40.4228966482418"},"Lines":"5 | 14 | 27 | 37 | 45 | 53 | 150"},{"Node":"69","Name":"PZA.DE CIBELES","Loc":{"Longitude":"-3.69353189605824","Latitude":"40.4197945076749"},"Lines":"1 | 2 | 9 | 15 | 20 | 51 | 52 | 53 | 74 | 146 | 203 | N16 | N17 | N18 | N19"},{"Node":"70","Name":"PZA.DE CIBELES","Loc":{"Longitude":"-3.69337395070087","Latitude":"40.4191558117028"},"Lines":"1 | 2 | 9 | 15 | 20 | 51 | 52 | 74 | 146 | N5 | N6 | N7"},{"Node":"71","Name":"Pº PRADO-PZA.DE CIBELES","Loc":{"Longitude":"-3.6926347733348","Latitude":"40.418808882595"},"Lines":"N2 | N3"},{"Node":"72","Name":"Pº RECOLETOS-PZA.DE CIBELES","Loc":{"Longitude":"-3.69214452424823","Latitude":"40.4203613685499"},"Lines":"5 | 14 | 27 | 37 | 45 | 53 | 150 | N1 | N4 | N22 | N24 | N25 | N26"},{"Node":"73","Name":"Pº RECOLETOS-PZA.DE CIBELES","Loc":{"Longitude":"-3.69280593946565","Latitude":"40.4202357914327"},"Lines":"5 | 14 | 27 | 37 | 45 | 150 | N23 | N25 | N26"},{"Node":"74","Name":"PZA.DE CIBELES-Pº DEL PRADO","Loc":{"Longitude":"-3.69333481126324","Latitude":"40.4190389285266"},"Lines":"34"},{"Node":"76","Name":"Pº PRADO-BANCO DE ESPAÑA","Loc":{"Longitude":"-3.69424254322182","Latitude":"40.4178262788003"},"Lines":"14 | 27 | 37 | 45"},{"Node":"77","Name":"PZA.CANOVAS DEL CASTILLO","Loc":{"Longitude":"-3.69465726037455","Latitude":"40.4151300878641"},"Lines":"10 | 14 | 27 | 34 | 37 | 45 | N9 | N10 | N11 | N12 | N13 | N14 | N15 | N17 | N25 | N26"},{"Node":"78","Name":"PZA.CANOVAS DEL CASTILLO","Loc":{"Longitude":"-3.69326538812111","Latitude":"40.4156429351348"},"Lines":"10 | 14 | 27 | 34 | 37 | 45 | N9 | N10 | N11 | N12 | N13 | N14 | N15 | N17 | N25"},{"Node":"79","Name":"Pº PRADO-PZA.PLATERIA MTNEZ.","Loc":{"Longitude":"-3.69342851614841","Latitude":"40.4123671696686"},"Lines":"10 | 14 | 27 | 34 | 37 | 45 | N9 | N10 | N11 | N12 | N13 | N14 | N15 | N17 | N25 | N26"},{"Node":"81","Name":"Pº PRADO-ATOCHA","Loc":{"Longitude":"-3.69262709547135","Latitude":"40.4099260079139"},"Lines":"10 | 14 | 27 | 34 | 37 | 45 | N9 | N10 | N11 | N12 | N13 | N14 | N15 | N17 | N25"},{"Node":"82","Name":"Pº PRADO-ATOCHA","Loc":{"Longitude":"-3.69217764133906","Latitude":"40.4100593263879"},"Lines":"10 | 14 | 27 | 34 | 37 | 45 | N9 | N10 | N11 | N12 | N13 | N14 | N15 | N17 | N25"},{"Node":"83","Name":"PZA.EMPERADOR CARLOS V","Loc":{"Longitude":"-3.69359214709933","Latitude":"40.4077760769698"},"Lines":"27 | 34 | C1 | N12 | N15 | N17"},{"Node":"84","Name":"RONDA DE ATOCHA","Loc":{"Longitude":"-3.69877287374323","Latitude":"40.4062944752711"},"Lines":"27 | 34 | 36 | 41 | 119 | C1 | N12 | N15 | N17"},{"Node":"85","Name":"RONDA DE ATOCHA-TEATRO CIRCO PRICE","Loc":{"Longitude":"-3.69888240252673","Latitude":"40.4059875063721"},"Lines":"27 | 34 | 36 | 41 | 119 | C2 | N12 | N15 | N17"},{"Node":"86","Name":"GTA.EMBAJADORES","Loc":{"Longitude":"-3.7024170698747","Latitude":"40.4054345871168"},"Lines":"27"},{"Node":"87","Name":"JOSE ANTONIO ARMONA-Pº STA.Mª CABEZA","Loc":{"Longitude":"-3.69673955379289","Latitude":"40.4044733823515"},"Lines":"27"},{"Node":"88","Name":"DELICIAS Nº 14","Loc":{"Longitude":"-3.69392739894658","Latitude":"40.4041929673943"},"Lines":"27"},{"Node":"89","Name":"Pº DELICIAS-TORTOSA","Loc":{"Longitude":"-3.69316123551764","Latitude":"40.4066615336944"},"Lines":"6 | 19 | 27 | 45 | N13 | N14"},{"Node":"90","Name":"ALCALA-CIRCULO DE BELLAS ARTES","Loc":{"Longitude":"-3.69607829125748","Latitude":"40.418671117781"},"Lines":"5 | 9 | 51 | 52 | 53 | 146 | 150"},{"Node":"92","Name":"MENDEZ ALVARO-EST.SUR DE AUTOBUSES","Loc":{"Longitude":"-3.67788462647718","Latitude":"40.3937879013167"},"Lines":"102 | 148"},{"Node":"93","Name":"MONFORTE DE LEMOS-LA VAGUADA","Loc":{"Longitude":"-3.70659288146228","Latitude":"40.4791613621992"},"Lines":"49 | 83 | 132 | 137"},{"Node":"96","Name":"CONCHA ESPINA-PZA.SAGRADOS CORAZONES","Loc":{"Longitude":"-3.68669029756152","Latitude":"40.4520965642162"},"Lines":"14 | 150"},{"Node":"97","Name":"PADRE DAMIAN-RAFAEL SALGADO","Loc":{"Longitude":"-3.68723744496758","Latitude":"40.4548005190438"},"Lines":"150"},{"Node":"98","Name":"PADRE DAMIAN-RAFAEL SALGADO","Loc":{"Longitude":"-3.68697997438195","Latitude":"40.4548155604648"},"Lines":"150"},{"Node":"99","Name":"PADRE DAMIAN-JOSE L.GALDIANO","Loc":{"Longitude":"-3.68583005731183","Latitude":"40.4576106583713"},"Lines":"150"},{"Node":"100","Name":"PADRE DAMIAN-JOSE L.GALDIANO","Loc":{"Longitude":"-3.68556807332406","Latitude":"40.4574725706888"},"Lines":"150"},{"Node":"101","Name":"PADRE DAMIAN-ALBERTO ALCOCER","Loc":{"Longitude":"-3.68563627382936","Latitude":"40.4595442325567"},"Lines":"150"},{"Node":"102","Name":"PADRE DAMIAN-ALBERTO ALCOCER","Loc":{"Longitude":"-3.68539217755317","Latitude":"40.4591718051213"},"Lines":"150"},{"Node":"103","Name":"PADRE DAMIAN-PEDRO MUGURUZA","Loc":{"Longitude":"-3.68539264083198","Latitude":"40.4619060272971"},"Lines":"150"},{"Node":"104","Name":"PADRE DAMIAN-PEDRO MUGURUZA","Loc":{"Longitude":"-3.68515710262558","Latitude":"40.4615785937534"},"Lines":"150"},{"Node":"105","Name":"FRAY.B.SAHAGUN-PZA.M.MOLAS","Loc":{"Longitude":"-3.68456110153939","Latitude":"40.4627082412141"},"Lines":"150"},{"Node":"106","Name":"FRAY.B.SAHAGUN-PZA.M.MOLAS","Loc":{"Longitude":"-3.68449723125278","Latitude":"40.4623707822566"},"Lines":"150"},{"Node":"107","Name":"FRAY.B.SAHAGUN-MENENDEZ PIDAL","Loc":{"Longitude":"-3.68225678089392","Latitude":"40.4612668930372"},"Lines":"150"},{"Node":"108","Name":"FRAY B.SAHAGUN-MENENDEZ PIDAL","Loc":{"Longitude":"-3.68223589596495","Latitude":"40.4610237736878"},"Lines":"150"},{"Node":"109","Name":"ALFONSO XIII-PZA.PRESIDENTE CARDENAS","Loc":{"Longitude":"-3.68045988143714","Latitude":"40.4604621549067"},"Lines":"150"},{"Node":"110","Name":"ALFONSO XIII-PZA.PRESIDENTE CARDENAS","Loc":{"Longitude":"-3.68041351538843","Latitude":"40.4602867522819"},"Lines":"150"},{"Node":"111","Name":"AV.PIO XII-PZA.PERU","Loc":{"Longitude":"-3.67673259707916","Latitude":"40.4608578729134"},"Lines":"16 | 29"},{"Node":"112","Name":"AV.PIO XII-PZA.PERU","Loc":{"Longitude":"-3.67635572069902","Latitude":"40.4609141289471"},"Lines":"16 | 29 | 150 | N1"},{"Node":"113","Name":"PZA.DEL PERU","Loc":{"Longitude":"-3.67692669155182","Latitude":"40.4602171006678"},"Lines":"51"},{"Node":"114","Name":"AV.PIO XII Nº 21","Loc":{"Longitude":"-3.67631209373524","Latitude":"40.4625945583984"},"Lines":"16 | 29 | 150 | N1"},{"Node":"115","Name":"AV.PIO XII-CENTRO COMERCIAL","Loc":{"Longitude":"-3.67602627093316","Latitude":"40.4625421737283"},"Lines":"16 | 29 | 150 | N1"},{"Node":"116","Name":"AV.PIO XII-COMANDANTE FRANCO","Loc":{"Longitude":"-3.67575356647983","Latitude":"40.4652014135894"},"Lines":"16 | 29 | 150 | N1"},{"Node":"117","Name":"AV.PIO XII-COMANDANTE FRANCO","Loc":{"Longitude":"-3.67537608643268","Latitude":"40.4655684795593"},"Lines":"16 | 29 | 150 | N1"},{"Node":"118","Name":"AV.PIO XII-NUNCIATURA","Loc":{"Longitude":"-3.67375411495808","Latitude":"40.4686680067273"},"Lines":"16 | 150"},{"Node":"119","Name":"AV.PIO XII-NUNCIATURA","Loc":{"Longitude":"-3.67362251278524","Latitude":"40.4683354406065"},"Lines":"16 | 150"},{"Node":"120","Name":"AV.PIO XII-MARQUES DE TORROJA","Loc":{"Longitude":"-3.67339995364037","Latitude":"40.470859246281"},"Lines":"150"},{"Node":"123","Name":"BAMBU-AV.PIO XII","Loc":{"Longitude":"-3.67749303662272","Latitude":"40.4741281430223"},"Lines":"129 | 150 | 174"},{"Node":"124","Name":"BAMBU-YUCA","Loc":{"Longitude":"-3.67642891385957","Latitude":"40.4768730883624"},"Lines":"129 | 150 | 174"},{"Node":"125","Name":"AV.BURGOS Nº 30","Loc":{"Longitude":"-3.67577492920103","Latitude":"40.4794940086604"},"Lines":"129 | 150 | 174"},{"Node":"126","Name":"AV.BURGOS Nº 30","Loc":{"Longitude":"-3.67550097154182","Latitude":"40.4792343478384"},"Lines":"129 | 150"},{"Node":"127","Name":"AV.SAN LUIS-AV.BURGOS","Loc":{"Longitude":"-3.67525908565404","Latitude":"40.4810015133446"},"Lines":"129 | 150"},{"Node":"128","Name":"AV.SAN LUIS-AV.BURGOS","Loc":{"Longitude":"-3.67495168918952","Latitude":"40.4806429478748"},"Lines":"129 | 150"},{"Node":"129","Name":"AV.SAN LUIS-CONDADO DE TREVIÑO","Loc":{"Longitude":"-3.67213019887274","Latitude":"40.4795872974258"},"Lines":"129 | 150"},{"Node":"130","Name":"AV.SAN LUIS-CONDADO DE TREVIÑO","Loc":{"Longitude":"-3.67259614521114","Latitude":"40.4798008062757"},"Lines":"129 | 150"},{"Node":"131","Name":"AV.SAN LUIS-SERRANO GALVACHE","Loc":{"Longitude":"-3.67084371171107","Latitude":"40.4778695442186"},"Lines":"129 | 150"},{"Node":"132","Name":"AV.SAN LUIS-SERRANO GALVACHE","Loc":{"Longitude":"-3.67090981959499","Latitude":"40.4774727670749"},"Lines":"129 | 150"},{"Node":"133","Name":"ARTURO SORIA-AV.SAN LUIS","Loc":{"Longitude":"-3.6689534663632","Latitude":"40.4769030096428"},"Lines":"29 | 129 | 150"},{"Node":"134","Name":"ARTURO SORIA-AV.SAN LUIS","Loc":{"Longitude":"-3.66851634849031","Latitude":"40.4768424717567"},"Lines":"29 | 125 | 129 | 150"},{"Node":"135","Name":"ARTURO SORIA Nº 315","Loc":{"Longitude":"-3.66851237904806","Latitude":"40.4792343725817"},"Lines":"29 | 125 | 129 | 150"},{"Node":"136","Name":"ARTURO SORIA-CULTURA","Loc":{"Longitude":"-3.6684272967244","Latitude":"40.4785727056398"},"Lines":"29 | 125 | 129 | 150"},{"Node":"137","Name":"ARTURO SORIA Nº 329","Loc":{"Longitude":"-3.66725480936662","Latitude":"40.4805073852251"},"Lines":"125 | 129 | 150 | N1"},{"Node":"138","Name":"ARTURO SORIA-DALIA","Loc":{"Longitude":"-3.66726530241246","Latitude":"40.4801514710997"},"Lines":"125 | 129 | 150"},{"Node":"139","Name":"ARTURO SORIA-AV.MANUEL AZAÑA","Loc":{"Longitude":"-3.66493961406554","Latitude":"40.4826288000781"},"Lines":"125 | 129 | 150 | N1"},{"Node":"140","Name":"ARTURO SORIA-AV.MANUEL AZAÑA","Loc":{"Longitude":"-3.66456003415878","Latitude":"40.4824237736648"},"Lines":"125 | 129 | 150"},{"Node":"145","Name":"AV.BURGOS Nº 16","Loc":{"Longitude":"-3.67590851542907","Latitude":"40.4751599213495"},"Lines":"129 | 150"},{"Node":"146","Name":"AV.BURGOS-AV.PIO XII","Loc":{"Longitude":"-3.67569597864106","Latitude":"40.4731521638426"},"Lines":"129 | 150"},{"Node":"147","Name":"PZA.MANUEL BECERRA-FCO.SILVELA","Loc":{"Longitude":"-3.66917121122373","Latitude":"40.4286135374372"},"Lines":"143 | 156"},{"Node":"148","Name":"DR.ESQUERDO-HERMOSILLA","Loc":{"Longitude":"-3.66891399684667","Latitude":"40.4252546533516"},"Lines":"2 | 56 | 71 | 143 | 156 | C1"},{"Node":"149","Name":"DR.ESQUERDO-FUNDADORES","Loc":{"Longitude":"-3.66850517560709","Latitude":"40.4248921479329"},"Lines":"2 | 56 | 71 | 143 | 156 | C2"},{"Node":"150","Name":"DR.ESQUERDO-O DONNELL","Loc":{"Longitude":"-3.6691885847369","Latitude":"40.4220278306811"},"Lines":"2 | 30 | 56 | 71 | 143 | 156"},{"Node":"151","Name":"DR.ESQUERDO-JORGE JUAN","Loc":{"Longitude":"-3.66871259753054","Latitude":"40.4227693215273"},"Lines":"2 | 30 | 56 | 71 | 143 | 156"},{"Node":"152","Name":"O DONNELL-DR.ESQUERDO","Loc":{"Longitude":"-3.66951284088333","Latitude":"40.4214403688043"},"Lines":"28 | N6"},{"Node":"153","Name":"O DONNELL-DR.ESQUERDO","Loc":{"Longitude":"-3.66951034477137","Latitude":"40.4211881300159"},"Lines":"28 | 203 | E2 | E3 | N6 | N27"},{"Node":"154","Name":"O DONNELL-MAIQUEZ","Loc":{"Longitude":"-3.67310988620475","Latitude":"40.4216087080187"},"Lines":"28"},{"Node":"155","Name":"O DONNELL-MAIQUEZ","Loc":{"Longitude":"-3.67313077218854","Latitude":"40.4213383153577"},"Lines":"28"},{"Node":"156","Name":"O DONNELL-NARVAEZ","Loc":{"Longitude":"-3.67638859621371","Latitude":"40.4217697858535"},"Lines":"2 | 28 | N6"},{"Node":"157","Name":"O DONNELL-NARVAEZ","Loc":{"Longitude":"-3.67645679892832","Latitude":"40.4215171343444"},"Lines":"2 | 28 | N6"},{"Node":"158","Name":"O DONNELL-AV.MENENDEZ PELAYO","Loc":{"Longitude":"-3.68040830135789","Latitude":"40.4217642566523"},"Lines":"2 | 20 | 28 | N6 | N8"},{"Node":"159","Name":"O DONNELL-AV.MENENDEZ PELAYO","Loc":{"Longitude":"-3.68073563076184","Latitude":"40.4214920618204"},"Lines":"20 | N8"},{"Node":"161","Name":"PUERTA DE ALCALA","Loc":{"Longitude":"-3.68919127035982","Latitude":"40.4206852894155"},"Lines":"1 | 2 | 9 | 15 | 20 | 51 | 52 | 74 | 146 | N4 | N5 | N6 | N7"},{"Node":"162","Name":"PUERTA DE ALCALA","Loc":{"Longitude":"-3.68826031065316","Latitude":"40.4196998317684"},"Lines":"1 | 2 | 9 | 15 | 19 | 20 | 51 | 52 | 74 | 146 | N2 | N3 | N5 | N6 | N7 | N8"},{"Node":"163","Name":"PUERTA DE ALCALA","Loc":{"Longitude":"-3.68850871995585","Latitude":"40.4205812410254"},"Lines":"28"},{"Node":"164","Name":"GRAN VIA-ALCALA","Loc":{"Longitude":"-3.69714696173351","Latitude":"40.4189619874668"},"Lines":"46 | 74 | 146 | M2"},{"Node":"166","Name":"GRAN VIA-MESONERO ROMANOS","Loc":{"Longitude":"-3.70345638897685","Latitude":"40.4203517636694"},"Lines":"1 | 2 | 46 | 74 | 146 | N16 | N18 | N19 | N20 | N21"},{"Node":"167","Name":"GRAN VIA-SALUD","Loc":{"Longitude":"-3.7032007523011","Latitude":"40.4200695317277"},"Lines":"1 | 2 | 46 | 74 | 146 | N18 | N19 | N20 | N21"},{"Node":"168","Name":"GRAN VIA-SAN BERNARDO","Loc":{"Longitude":"-3.70726954650724","Latitude":"40.4213870978905"},"Lines":"1 | 2 | 44 | 46 | 74 | 75 | 133 | 147 | 148 | N16 | N18 | N19 | N20 | N21"},{"Node":"169","Name":"GRAN VIA-SAN BERNARDO","Loc":{"Longitude":"-3.70745560004835","Latitude":"40.4211427174884"},"Lines":"1 | 2 | 46 | 74 | 146 | N18 | N19 | N20 | N21"},{"Node":"170","Name":"GRAN VIA-PZA.ESPAÑA","Loc":{"Longitude":"-3.70970295878423","Latitude":"40.4229938347379"},"Lines":"1 | 2 | 3 | 44 | 46 | 74 | 75 | 133 | 148 | N16 | N18 | N19 | N20 | N21"},{"Node":"171","Name":"GRAN VIA-PZA.ESPAÑA","Loc":{"Longitude":"-3.71051696529709","Latitude":"40.4230519060504"},"Lines":"1 | 2 | 46 | 74 | N18 | N19 | N20 | N21"},{"Node":"172","Name":"PRINCESA-VENTURA RODRIGUEZ","Loc":{"Longitude":"-3.71265807696695","Latitude":"40.4259937086544"},"Lines":"1 | 2 | 44 | 133 | C1 | N21"},{"Node":"173","Name":"PRINCESA-VENTURA RODRIGUEZ","Loc":{"Longitude":"-3.71313036134631","Latitude":"40.4260628731286"},"Lines":"1 | 2 | 44 | 74 | 133 | C2 | N21"},{"Node":"174","Name":"ALCALA-LAGASCA","Loc":{"Longitude":"-3.68579324191595","Latitude":"40.4205252814885"},"Lines":"2 | 20 | 28"},{"Node":"175","Name":"MARTIRES DE ALCALA-PRINCESA","Loc":{"Longitude":"-3.71358496044699","Latitude":"40.4278078226297"},"Lines":"2"},{"Node":"176","Name":"BLASCO DE GARAY-ALBERTO AGUILERA","Loc":{"Longitude":"-3.71172744180731","Latitude":"40.4305399786833"},"Lines":"2"},{"Node":"177","Name":"BLASCO DE GARAY Nº 40","Loc":{"Longitude":"-3.7114692086522","Latitude":"40.434010036019"},"Lines":"2"},{"Node":"180","Name":"VALLEHERMOSO Nº 112","Loc":{"Longitude":"-3.70803485701611","Latitude":"40.4405130684806"},"Lines":"2"},{"Node":"181","Name":"JUAN VIGON Nº 23","Loc":{"Longitude":"-3.70997716293303","Latitude":"40.4425867582368"},"Lines":"2"},{"Node":"182","Name":"JUAN VIGON-GUZMAN EL BUENO","Loc":{"Longitude":"-3.71238456980618","Latitude":"40.4414368371111"},"Lines":"2"},{"Node":"183","Name":"GRAL.AMPUDIA Nº 8","Loc":{"Longitude":"-3.71503196131361","Latitude":"40.4424295256612"},"Lines":"2"},{"Node":"184","Name":"GRAL.AMPUDIA Nº 18","Loc":{"Longitude":"-3.71508130488714","Latitude":"40.4436454353967"},"Lines":"2"},{"Node":"185","Name":"AV.REINA VICTORIA-GRAL.RODRIGO","Loc":{"Longitude":"-3.71420955281916","Latitude":"40.4458535152216"},"Lines":"2 | F | C1"},{"Node":"186","Name":"GUZMAN EL BUENO Nº 139","Loc":{"Longitude":"-3.71241222722258","Latitude":"40.4459141379506"},"Lines":"2"},{"Node":"187","Name":"GUZMAN EL BUENO-SAN FRANCISCO DE SALES","Loc":{"Longitude":"-3.71265274343737","Latitude":"40.4429667164741"},"Lines":"2"},{"Node":"188","Name":"GUZMAN EL BUENO-JUAN VIGON","Loc":{"Longitude":"-3.71282301464341","Latitude":"40.4416413455956"},"Lines":"2 | 12"},{"Node":"189","Name":"GUZMAN EL BUENO-CEA BERMUDEZ","Loc":{"Longitude":"-3.71301720573395","Latitude":"40.4388113235219"},"Lines":"2"},{"Node":"190","Name":"GUZMAN EL BUENO-FERNANDEZ DE LOS RIOS","Loc":{"Longitude":"-3.7132305174211","Latitude":"40.4359091099503"},"Lines":"2"},{"Node":"191","Name":"GUZMAN EL BUENO-MELENDEZ VALDES","Loc":{"Longitude":"-3.71342065966853","Latitude":"40.4336061366238"},"Lines":"2"},{"Node":"192","Name":"GUZMAN EL BUENO-ALBERTO AGUILERA","Loc":{"Longitude":"-3.71361927557576","Latitude":"40.4310598664836"},"Lines":"2"},{"Node":"193","Name":"PRINCESA Nº 29","Loc":{"Longitude":"-3.71453003324472","Latitude":"40.4279911839452"},"Lines":"1 | 2 | 44 | 133 | C2"},{"Node":"194","Name":"AV.MENENDEZ PELAYO-MENORCA","Loc":{"Longitude":"-3.67918607120403","Latitude":"40.4198615144502"},"Lines":"20 | 152 | N8"},{"Node":"195","Name":"AV.MENENDEZ PELAYO-MENORCA","Loc":{"Longitude":"-3.67937096912257","Latitude":"40.4196757445474"},"Lines":"20 | 152 | N8"},{"Node":"196","Name":"SAINZ DE BARANDA Nº 10","Loc":{"Longitude":"-3.67726147234206","Latitude":"40.4169673684204"},"Lines":"N8"},{"Node":"197","Name":"IBIZA-NARVAEZ","Loc":{"Longitude":"-3.67650931483764","Latitude":"40.4185168161146"},"Lines":"N8"},{"Node":"199","Name":"IBIZA-MAIQUEZ","Loc":{"Longitude":"-3.6727591978734","Latitude":"40.4183494716017"},"Lines":"2 | N8"},{"Node":"203","Name":"MATEO INURRIA-ENRIQUE LARRETA","Loc":{"Longitude":"-3.68513420149337","Latitude":"40.4669525814586"},"Lines":"70 | 107 | 129"},{"Node":"204","Name":"MATEO INURRIA-ENRIQUE LARRETA","Loc":{"Longitude":"-3.68559113094258","Latitude":"40.4669723989914"},"Lines":"70 | 107 | 129 | 174"},{"Node":"205","Name":"MATEO INURRIA-AV.RECUERDO","Loc":{"Longitude":"-3.6815446595674","Latitude":"40.4674782698903"},"Lines":"70 | 107 | 129"},{"Node":"206","Name":"MATEO INURRIA-AV.RECUERDO","Loc":{"Longitude":"-3.68116542715476","Latitude":"40.4676696900266"},"Lines":"70 | 107 | 129 | 174"},{"Node":"207","Name":"MATEO INURRIA-Pº HABANA","Loc":{"Longitude":"-3.67961866029863","Latitude":"40.4676337350591"},"Lines":"70 | 107 | 129"},{"Node":"208","Name":"CAIDOS DIVISION AZUL-AV.PIO XII","Loc":{"Longitude":"-3.67524798080748","Latitude":"40.4674295795025"},"Lines":"70 | 107"},{"Node":"209","Name":"CAIDOS DIVISION AZUL-AV.PIO XII","Loc":{"Longitude":"-3.67517202236094","Latitude":"40.4675381301266"},"Lines":"70 | 107"},{"Node":"210","Name":"CAIDOS DIVISION AZUL-CTE.FRANCO","Loc":{"Longitude":"-3.67273187213851","Latitude":"40.4665568426751"},"Lines":"29 | 70 | 107 | N1"},{"Node":"211","Name":"CAIDOS DIVISION AZUL-CTE.FRANCO","Loc":{"Longitude":"-3.67275851334043","Latitude":"40.4668629929445"},"Lines":"29 | 70 | 107 | N1"},{"Node":"212","Name":"ARTURO SORIA-AÑASTRO","Loc":{"Longitude":"-3.66613802514417","Latitude":"40.4665679400534"},"Lines":"7 | 70"},{"Node":"213","Name":"ARTURO SORIA-AÑASTRO","Loc":{"Longitude":"-3.6657863193028","Latitude":"40.4666014943838"},"Lines":"70"},{"Node":"214","Name":"ARTURO SORIA-AÑASTRO","Loc":{"Longitude":"-3.66597122049962","Latitude":"40.4675959226354"},"Lines":"7 | 29 | 107 | N1"},{"Node":"215","Name":"ARTURO SORIA-MANUEL URIBE","Loc":{"Longitude":"-3.66506535817898","Latitude":"40.4630515961078"},"Lines":"7 | 70"},{"Node":"216","Name":"ARTURO SORIA-MANUEL URIBE","Loc":{"Longitude":"-3.66504088194221","Latitude":"40.4641598411844"},"Lines":"7 | 70"},{"Node":"217","Name":"ARTURO SORIA Nº 212","Loc":{"Longitude":"-3.66223905439297","Latitude":"40.4611128461684"},"Lines":"7 | 11 | 70"},{"Node":"218","Name":"ARTURO SORIA-LOPEZ DE HOYOS","Loc":{"Longitude":"-3.66068169967231","Latitude":"40.4595631881383"},"Lines":"9 | 11 | 70 | 72 | 73 | N2 | N3"},{"Node":"219","Name":"ARTURO SORIA-LOPEZ DE HOYOS","Loc":{"Longitude":"-3.65944864676668","Latitude":"40.4592098576039"},"Lines":"11 | 70"},{"Node":"220","Name":"ARTURO SORIA-CELESTE","Loc":{"Longitude":"-3.65754998553993","Latitude":"40.4568152546627"},"Lines":"11 | 70 | N3"},{"Node":"221","Name":"ARTURO SORIA-BELISANA","Loc":{"Longitude":"-3.65743381787486","Latitude":"40.4571492469796"},"Lines":"11 | 70 | N3"},{"Node":"222","Name":"ARTURO SORIA-JEFATURA PROV.TRAFICO","Loc":{"Longitude":"-3.65546902005714","Latitude":"40.454534263777"},"Lines":"11 | 70 | 122 | N3"},{"Node":"223","Name":"ARTURO SORIA Nº 164-LUIS CARLOS VAZQUEZ","Loc":{"Longitude":"-3.6553611420454","Latitude":"40.4547736127721"},"Lines":"11 | 70 | 122 | N3"},{"Node":"224","Name":"ARTURO SORIA-CONSERVATORIO","Loc":{"Longitude":"-3.65324480659172","Latitude":"40.4519837723668"},"Lines":"11 | 70 | 122 | N3"},{"Node":"225","Name":"ARTURO SORIA-DIEGO AYLLON","Loc":{"Longitude":"-3.6521943556494","Latitude":"40.4509806851572"},"Lines":"11 | 70 | 122 | N3"},{"Node":"226","Name":"ARTURO SORIA-HOSPITAL NTRA.SRA.AMERICA","Loc":{"Longitude":"-3.65161721385567","Latitude":"40.4497947457046"},"Lines":"11 | 70 | N3"},{"Node":"227","Name":"ARTURO SORIA-HOSPITAL NTRA.SRA.AMERICA","Loc":{"Longitude":"-3.65063612284026","Latitude":"40.4492146768111"},"Lines":"11 | 70 | N3"},{"Node":"228","Name":"ARTURO SORIA-CONDESA DE VENADITO","Loc":{"Longitude":"-3.64905394713218","Latitude":"40.4468271592708"},"Lines":"70"},{"Node":"229","Name":"ARTURO SORIA-JOSEFA VALCARCEL","Loc":{"Longitude":"-3.64896530476758","Latitude":"40.4471519804108"},"Lines":"21 | 70 | 114 | N4"},{"Node":"230","Name":"ARTURO SORIA-JUAN PEREZ ZUÑIGA","Loc":{"Longitude":"-3.64571943086647","Latitude":"40.4448412949917"},"Lines":"70"},{"Node":"231","Name":"ARTURO SORIA-JUAN PEREZ ZUÑIGA","Loc":{"Longitude":"-3.64564453801796","Latitude":"40.4451795505773"},"Lines":"21 | 70"},{"Node":"232","Name":"ARTURO SORIA-MARQUES PICO VELASCO","Loc":{"Longitude":"-3.64395072817575","Latitude":"40.4440808726364"},"Lines":"70"},{"Node":"233","Name":"ARTURO SORIA-MARQUES PICO VELASCO","Loc":{"Longitude":"-3.64386738510435","Latitude":"40.444306561426"},"Lines":"70"},{"Node":"234","Name":"ARTURO SORIA-JOSE DEL HIERRO","Loc":{"Longitude":"-3.64127684131158","Latitude":"40.4420957078192"},"Lines":"70"},{"Node":"235","Name":"ARTURO SORIA-JOSE DEL HIERRO","Loc":{"Longitude":"-3.64029561780838","Latitude":"40.4412858206163"},"Lines":"70"},{"Node":"236","Name":"ARTURO SORIA-MARQUESA DE TORRECILLA","Loc":{"Longitude":"-3.63881383043978","Latitude":"40.4386228280816"},"Lines":"48 | 70"},{"Node":"237","Name":"ARTURO SORIA-MARQUESA DE TORRECILLA","Loc":{"Longitude":"-3.63836749233756","Latitude":"40.4388054696737"},"Lines":"48 | 70"},{"Node":"239","Name":"HNOS.GARCIA NOBLEJAS-ALCALA","Loc":{"Longitude":"-3.63741168209885","Latitude":"40.4374773981884"},"Lines":"4 | 38 | 48 | 70 | 105"},{"Node":"240","Name":"HNOS.GARCIA NOBLEJAS-VITAL AZA","Loc":{"Longitude":"-3.63609102292537","Latitude":"40.4349621307091"},"Lines":"4 | 38 | 48 | 70 | 105"},{"Node":"241","Name":"HNOS.GARCIA NOBLEJAS-VITAL AZA","Loc":{"Longitude":"-3.63575064111617","Latitude":"40.4351261622258"},"Lines":"4 | 38 | 48 | 70 | 105"},{"Node":"242","Name":"HNOS.GARCIA NOBLEJAS-ASCAO","Loc":{"Longitude":"-3.63446554362392","Latitude":"40.4326196887521"},"Lines":"4 | 38 | 48 | 70"},{"Node":"243","Name":"HNOS.GARCIA NOBLEJAS-JULIAN CAMARILLO","Loc":{"Longitude":"-3.6337930378311","Latitude":"40.4325693165967"},"Lines":"4 | 38 | 48 | 70"},{"Node":"244","Name":"HNOS.GARCIA NOBLEJAS-LUIS CAMPOS","Loc":{"Longitude":"-3.63212542621317","Latitude":"40.4294883296472"},"Lines":"4 | 38 | 48 | 70 | N6"},{"Node":"245","Name":"HNOS. GARCIA NOBLEJAS-VALDECANILLAS","Loc":{"Longitude":"-3.63160705020907","Latitude":"40.429527193793"},"Lines":"4 | 38 | 48 | 70 | N6"},{"Node":"246","Name":"HNOS.GARCIA NOBLEJAS-CASTILLO DE AREVALO","Loc":{"Longitude":"-3.63088333128641","Latitude":"40.4277743746828"},"Lines":"4 | 38 | 48 | 70"},{"Node":"247","Name":"HNOS.GARCIA NOBLEJAS-CASTILLO DE AREVALO","Loc":{"Longitude":"-3.63073327093651","Latitude":"40.4281175356367"},"Lines":"4 | 38 | 48 | 70"},{"Node":"248","Name":"HNOS.GARCIA NOBLEJAS-CASTILLO UCLES","Loc":{"Longitude":"-3.62952727261265","Latitude":"40.4264754413697"},"Lines":"4 | 38 | 48 | 70 | N6"},{"Node":"250","Name":"HNOS.GARCIA NOBLEJAS-FCO.L.CABALLERO","Loc":{"Longitude":"-3.6280403390237","Latitude":"40.4237717895682"},"Lines":"4 | 38 | 48 | 70 | N6"},{"Node":"251","Name":"HNOS.GARCIA NOBLEJAS-JOSE BLAS","Loc":{"Longitude":"-3.62869465091759","Latitude":"40.4253628418074"},"Lines":"70"},{"Node":"252","Name":"HNOS.GARCIA NOBLEJAS-AV.ARCENTALES","Loc":{"Longitude":"-3.62754725128309","Latitude":"40.4239906793618"},"Lines":"4 | 38 | 48 | N6"},{"Node":"253","Name":"HNOS.GARCIA NOBLEJAS Nº 184","Loc":{"Longitude":"-3.62575903663998","Latitude":"40.4206805173531"},"Lines":"70"},{"Node":"255","Name":"GOYA-FERNAN GONZALEZ","Loc":{"Longitude":"-3.67444936660287","Latitude":"40.4247180425148"},"Lines":"30"},{"Node":"256","Name":"NICOLAS SALMERON-PAREDES DE NAVA","Loc":{"Longitude":"-3.62807518995904","Latitude":"40.418636438924"},"Lines":"70 | 106 | N7"},{"Node":"257","Name":"NICOLAS SALMERON-PAREDES DE NAVA","Loc":{"Longitude":"-3.62821037437891","Latitude":"40.4184375065191"},"Lines":"106 | N7"},{"Node":"258","Name":"NICOLAS SALMERON-MATAMOROSA","Loc":{"Longitude":"-3.6300060370574","Latitude":"40.4196529857514"},"Lines":"70 | 106"},{"Node":"259","Name":"NICOLAS SALMERON-MATAMOROSA","Loc":{"Longitude":"-3.63010266692631","Latitude":"40.4194677744554"},"Lines":"106"},{"Node":"260","Name":"NICOLAS SALMERON Nº 13","Loc":{"Longitude":"-3.63217369962241","Latitude":"40.4207763164149"},"Lines":"70 | 106 | N7"},{"Node":"261","Name":"NICOLAS SALMERON Nº 13","Loc":{"Longitude":"-3.6322254803444","Latitude":"40.4206408979638"},"Lines":"106 | N7"},{"Node":"262","Name":"NICOLAS SALMERON-CEMENTERIO CIVIL","Loc":{"Longitude":"-3.63431861893077","Latitude":"40.4219808120735"},"Lines":"70 | 106"},{"Node":"263","Name":"NICOLAS SALMERON-CEMENTERIO CIVIL","Loc":{"Longitude":"-3.63424303479153","Latitude":"40.4217379815556"},"Lines":"106"},{"Node":"264","Name":"FCO.LARGO CABALLERO-N.SALMERON","Loc":{"Longitude":"-3.63526041203627","Latitude":"40.4231017819828"},"Lines":"70"},{"Node":"265","Name":"FCO.LARGO CABALLERO-FRESNO","Loc":{"Longitude":"-3.63272713007948","Latitude":"40.4232327660232"},"Lines":"70"},{"Node":"266","Name":"CAIDOS DIVISION AZUL-DUQUE DE PASTRANA","Loc":{"Longitude":"-3.67785505532899","Latitude":"40.4681035313862"},"Lines":"70 | 107"},{"Node":"278","Name":"HORTALEZA-GRAVINA","Loc":{"Longitude":"-3.69869872434991","Latitude":"40.4236193151998"},"Lines":"3"},{"Node":"280","Name":"FCO.DE ROJAS-SAGASTA","Loc":{"Longitude":"-3.69937842481208","Latitude":"40.4288945018187"},"Lines":"37 | 40"},{"Node":"281","Name":"FCO.DE ROJAS-SAGASTA","Loc":{"Longitude":"-3.69961289326812","Latitude":"40.4287669591199"},"Lines":"37 | 40"},{"Node":"282","Name":"FCO.DE ROJAS-LUCHANA","Loc":{"Longitude":"-3.70006464511416","Latitude":"40.4302687354482"},"Lines":"40"},{"Node":"284","Name":"LUCHANA-PZA.DE CHAMBERÍ","Loc":{"Longitude":"-3.69815033086212","Latitude":"40.4321271421345"},"Lines":"40 | 147"},{"Node":"285","Name":"LUCHANA-PZA.DE CHAMBERI","Loc":{"Longitude":"-3.69868000814237","Latitude":"40.4320428661898"},"Lines":"40 | 147"},{"Node":"286","Name":"EDUARDO DATO-ZURBANO","Loc":{"Longitude":"-3.69432539855262","Latitude":"40.4327897807045"},"Lines":"40 | 147"},{"Node":"287","Name":"EDUARDO DATO-ZURBANO","Loc":{"Longitude":"-3.69448143552844","Latitude":"40.4330591155163"},"Lines":"40 | 147"},{"Node":"288","Name":"EDUARDO DATO-RUBEN DARIO","Loc":{"Longitude":"-3.69215708002548","Latitude":"40.432892852179"},"Lines":"40 | 147"},{"Node":"289","Name":"ALBERTO AGUILERA-PRINCESA","Loc":{"Longitude":"-3.71523606669187","Latitude":"40.4305138542699"},"Lines":"M2"},{"Node":"292","Name":"AV.RAFAELA YBARRA-BEASAIN","Loc":{"Longitude":"-3.71242941856285","Latitude":"40.3668956251239"},"Lines":"6 | 131"},{"Node":"293","Name":"ALBERTO ALCOCER-PADRE DAMIAN","Loc":{"Longitude":"-3.68516744436247","Latitude":"40.4586731368197"},"Lines":"11 | 40"},{"Node":"294","Name":"ALBERTO ALCOCER-PADRE DAMIAN","Loc":{"Longitude":"-3.68512419685243","Latitude":"40.4590607789213"},"Lines":"11 | 40"},{"Node":"295","Name":"ALBERTO ALCOCER-Pº DE LA HABANA","Loc":{"Longitude":"-3.6823354531414","Latitude":"40.4585457174016"},"Lines":"11 | 40"},{"Node":"296","Name":"ALBERTO ALCOCER-Pº DE LA HABANA","Loc":{"Longitude":"-3.68236213424734","Latitude":"40.4588518655507"},"Lines":"11 | 40"},{"Node":"297","Name":"ALBERTO ALCOCER-BOLIVIA","Loc":{"Longitude":"-3.67826719582899","Latitude":"40.4586326838112"},"Lines":"11 | 40"},{"Node":"298","Name":"ALBERTO ALCOCER-BOLIVIA","Loc":{"Longitude":"-3.67832960216094","Latitude":"40.4589746595752"},"Lines":"11 | 40"},{"Node":"299","Name":"COSTA RICA-CHILE","Loc":{"Longitude":"-3.67544611033171","Latitude":"40.4584149417177"},"Lines":"7 | 11 | 40"},{"Node":"300","Name":"COSTA RICA-VICTOR DE LA SERNA","Loc":{"Longitude":"-3.67228472375625","Latitude":"40.458370277764"},"Lines":"7 | 11 | 40 | 87"},{"Node":"302","Name":"COSTA RICA-PZA.JOSE MARIA SOLER","Loc":{"Longitude":"-3.66905748313092","Latitude":"40.4588214020591"},"Lines":"7 | 11 | 40 | 87"},{"Node":"303","Name":"COSTA RICA-PZA.JOSE MARIA SOLER","Loc":{"Longitude":"-3.66929595014687","Latitude":"40.4590812844627"},"Lines":"7 | 11 | 40 | 87"},{"Node":"304","Name":"AV.ALFONSO XIII-AV.ASTER","Loc":{"Longitude":"-3.66729525097068","Latitude":"40.4571378816295"},"Lines":"40"},{"Node":"305","Name":"AV.ALFONSO XIII-AV.ASTER","Loc":{"Longitude":"-3.66696288474566","Latitude":"40.4575947504984"},"Lines":"40"},{"Node":"306","Name":"AV.ALFONSO XIII-AV.ALHELIES","Loc":{"Longitude":"-3.66706420048912","Latitude":"40.4552383159518"},"Lines":"40"},{"Node":"307","Name":"AV.ALFONSO XIII-AV.ALHELIES","Loc":{"Longitude":"-3.66675792926547","Latitude":"40.4552761159173"},"Lines":"40"},{"Node":"308","Name":"AV.ALFONSO XIII-AV.RAMON Y CAJAL","Loc":{"Longitude":"-3.66745721425449","Latitude":"40.4532360546392"},"Lines":"40"},{"Node":"309","Name":"AV.ALFONSO XIII-AV.RAMON Y CAJAL","Loc":{"Longitude":"-3.66719750174526","Latitude":"40.4532105244121"},"Lines":"40"},{"Node":"310","Name":"AV.ALFONSO XIII-PRADILLO","Loc":{"Longitude":"-3.66765274273853","Latitude":"40.4513160111816"},"Lines":"9 | 40 | 43 | 72 | 73 | N2"},{"Node":"311","Name":"AV.ALFONSO XIII-PRADILLO","Loc":{"Longitude":"-3.6673292836767","Latitude":"40.4510295878186"},"Lines":"40 | 43"},{"Node":"312","Name":"SAN NAZARIO Nº 1","Loc":{"Longitude":"-3.66750235525016","Latitude":"40.4482538181329"},"Lines":"40"},{"Node":"313","Name":"CORAZON DE MARIA-SAN NAZARIO","Loc":{"Longitude":"-3.66594761921023","Latitude":"40.4485600670253"},"Lines":"40 | 43 | 72"},{"Node":"314","Name":"COSTA RICA-PZA.REP.DOMINICANA","Loc":{"Longitude":"-3.67598125081193","Latitude":"40.4588532589117"},"Lines":"7 | 11 | 40 | 87"},{"Node":"315","Name":"GAINZA-AV.RAFAELA YBARRA","Loc":{"Longitude":"-3.71428740864514","Latitude":"40.3658751615231"},"Lines":"6"},{"Node":"316","Name":"MIGUEL ANGEL-RUBEN DARIO","Loc":{"Longitude":"-3.69147882339103","Latitude":"40.4334374455295"},"Lines":"40 | 147"},{"Node":"317","Name":"PZA.DE CHAMBERI","Loc":{"Longitude":"-3.6971540048151","Latitude":"40.4326917040781"},"Lines":"40 | 147"},{"Node":"320","Name":"RONDA DE VALENCIA","Loc":{"Longitude":"-3.70164187769844","Latitude":"40.4055113587643"},"Lines":"34 | 36 | 41 | 119 | C1 | N12 | N15"},{"Node":"321","Name":"RONDA DE VALENCIA","Loc":{"Longitude":"-3.70144445528159","Latitude":"40.4052963372998"},"Lines":"34 | 36 | 41 | 119 | N12 | N15"},{"Node":"322","Name":"Pº ACACIAS-GTA.EMBAJADORES","Loc":{"Longitude":"-3.70427094092386","Latitude":"40.4047521531197"},"Lines":"34 | 36 | 119 | N12 | N15"},{"Node":"323","Name":"Pº ACACIAS-GTA.EMBAJADORES","Loc":{"Longitude":"-3.70388879821616","Latitude":"40.4046238450745"},"Lines":"34 | 36 | 119 | N12 | N15"},{"Node":"324","Name":"Pº ACACIAS-RIBERA DE CURTIDORES","Loc":{"Longitude":"-3.707111325015","Latitude":"40.4039915975804"},"Lines":"34 | 36 | 62 | 116 | 118 | 119"},{"Node":"325","Name":"Pº ACACIAS-Pº ESPERANZA","Loc":{"Longitude":"-3.70697567116073","Latitude":"40.403803235551"},"Lines":"34 | 36 | 62 | 116 | 118 | 119"},{"Node":"326","Name":"Pº ACACIAS-Pº OLMOS","Loc":{"Longitude":"-3.71004917478682","Latitude":"40.4031898339482"},"Lines":"34 | 36 | 62 | 116 | 118 | 119 | N12 | N15"},{"Node":"327","Name":"Pº ACACIAS-GTA.PIRAMIDES","Loc":{"Longitude":"-3.71330710556673","Latitude":"40.4013860189182"},"Lines":"34 | 36 | 62 | 116 | 118 | 119 | N12 | N15"},{"Node":"328","Name":"Pº ACACIAS-GTA.PIRAMIDES","Loc":{"Longitude":"-3.71324236847408","Latitude":"40.4011837137714"},"Lines":"34 | 36 | 62 | 116 | 118 | 119 | N12 | N15"},{"Node":"329","Name":"GRAL.RICARDOS-GTA.MQUES.VADILLO","Loc":{"Longitude":"-3.71728074274987","Latitude":"40.3972173063728"},"Lines":"34 | 35 | 118 | 119 | N26"},{"Node":"330","Name":"GRAL.RICARDOS-GTA.MQUES.VADILLO","Loc":{"Longitude":"-3.71665652542038","Latitude":"40.3972481980869"},"Lines":"34 | 35 | 118 | 119 | N26"},{"Node":"331","Name":"GRAL.RICARDOS-IGLESIA","Loc":{"Longitude":"-3.71904659350945","Latitude":"40.3959450864717"},"Lines":"34 | 35 | 118 | 119 | N26"},{"Node":"332","Name":"GUETARIA-ORDICIA","Loc":{"Longitude":"-3.71542501446957","Latitude":"40.3665618424502"},"Lines":"6"},{"Node":"334","Name":"GRAL.RICARDOS-Cº VIEJO LEGANES","Loc":{"Longitude":"-3.72308301558623","Latitude":"40.3937532733512"},"Lines":"34 | 35 | 118 | 119 | N26"},{"Node":"336","Name":"GRAL.RICARDOS-URGEL","Loc":{"Longitude":"-3.72538482406226","Latitude":"40.3925181495034"},"Lines":"34 | 35 | 119 | N26"},{"Node":"337","Name":"GRAL.RICARDOS-CLARISAS","Loc":{"Longitude":"-3.72893457386123","Latitude":"40.3906129647349"},"Lines":"34 | 35 | 118 | N26"},{"Node":"338","Name":"GRAL.RICARDOS-CLARISAS","Loc":{"Longitude":"-3.72884928880279","Latitude":"40.3903522384087"},"Lines":"34 | 35 | N26"},{"Node":"340","Name":"GRAL.RICARDOS-GTA.VALLE DE ORO","Loc":{"Longitude":"-3.73121013044305","Latitude":"40.3888418500229"},"Lines":"34 | 35 | N26"},{"Node":"341","Name":"GRAL.RICARDOS-VISTA ALEGRE","Loc":{"Longitude":"-3.73735332672256","Latitude":"40.3853389095346"},"Lines":"34 | 35 | N17"},{"Node":"342","Name":"GRAL.RICARDOS-VISTA ALEGRE","Loc":{"Longitude":"-3.73729977469458","Latitude":"40.3851545643905"},"Lines":"34 | 35 | N17"},{"Node":"343","Name":"GRAL.RICARDOS-Pº MUÑOZ GRANDES","Loc":{"Longitude":"-3.73919797172317","Latitude":"40.3848721915574"},"Lines":"34 | 35 | N17"},{"Node":"344","Name":"GRAL.RICARDOS-Pº MUÑOZ GRANDES","Loc":{"Longitude":"-3.73964956473781","Latitude":"40.3845539904555"},"Lines":"34"},{"Node":"345","Name":"GRAL.RICARDOS-NTRA.SRA.DE LA LUZ","Loc":{"Longitude":"-3.74278706359008","Latitude":"40.3827320934495"},"Lines":"34"},{"Node":"346","Name":"GRAL.RICARDOS-NTRA.SRA.DE LA LUZ","Loc":{"Longitude":"-3.74252332261725","Latitude":"40.3826527030428"},"Lines":"34"},{"Node":"347","Name":"GRAL.RICARDOS-EUGENIA  DE MONTIJO","Loc":{"Longitude":"-3.74506523334589","Latitude":"40.3809877155104"},"Lines":"34"},{"Node":"348","Name":"GRAL.RICARDOS-EUGENIA  DE MONTIJO","Loc":{"Longitude":"-3.74493977962509","Latitude":"40.3807948272945"},"Lines":"34"},{"Node":"349","Name":"EUGENIA DE MONTIJO Nº 78","Loc":{"Longitude":"-3.74745057987211","Latitude":"40.3790579145185"},"Lines":"34"},{"Node":"350","Name":"EUGENIA DE MONTIJO Nº 55","Loc":{"Longitude":"-3.74616225023769","Latitude":"40.3800437080014"},"Lines":"34"},{"Node":"351","Name":"EUGENIA DE MONTIJO-NTRA.SRA.FATIMA","Loc":{"Longitude":"-3.74820218097615","Latitude":"40.3783773797978"},"Lines":"34"},{"Node":"352","Name":"EUGENIA DE MONTIJO-NTRA.SRA.FATIMA","Loc":{"Longitude":"-3.74805862580097","Latitude":"40.3782792072319"},"Lines":"34"},{"Node":"353","Name":"RONDA DON BOSCO-PZA.PARTERRE","Loc":{"Longitude":"-3.75139312907663","Latitude":"40.3758116534491"},"Lines":"34 | 139"},{"Node":"354","Name":"RONDA DON BOSCO-PARAGUAYA","Loc":{"Longitude":"-3.75338308134796","Latitude":"40.3746725891896"},"Lines":"34"},{"Node":"355","Name":"JOAQUIN TURINA-POLVORANCA","Loc":{"Longitude":"-3.75461514681613","Latitude":"40.3721240041331"},"Lines":"34"},{"Node":"356","Name":"JOAQUIN TURINA-POLVORANCA","Loc":{"Longitude":"-3.75454825781545","Latitude":"40.3719352490147"},"Lines":"34 | 139"},{"Node":"357","Name":"JOAQUIN TURINA-NAVALMORALES","Loc":{"Longitude":"-3.75880787151452","Latitude":"40.3722857995428"},"Lines":"34"},{"Node":"358","Name":"JOAQUIN TURINA-NAVALMORALES","Loc":{"Longitude":"-3.7590703081954","Latitude":"40.3721849797088"},"Lines":"34"},{"Node":"359","Name":"GRAL.MILLAN ASTRAY-GRAL.SALIQUET","Loc":{"Longitude":"-3.76529657040331","Latitude":"40.3750269097525"},"Lines":"34 | 155"},{"Node":"360","Name":"GRAL.MILLAN ASTRAY-GRAL.SALIQUET","Loc":{"Longitude":"-3.7654893847228","Latitude":"40.3743679722045"},"Lines":"34 | 155 | N19"},{"Node":"361","Name":"GRAL.MILLAN ASTRAY-GRAL.R.BASART","Loc":{"Longitude":"-3.76630638371324","Latitude":"40.3775698022125"},"Lines":"34 | 155"},{"Node":"362","Name":"GRAL.MILLAN ASTRAY-GRAL.R.BASART","Loc":{"Longitude":"-3.76649062582181","Latitude":"40.377487501161"},"Lines":"34 | 155 | N19"},{"Node":"363","Name":"GRAL.ROMERO BASART-JOSE DE CADALSO","Loc":{"Longitude":"-3.76881221129416","Latitude":"40.3775622023136"},"Lines":"34"},{"Node":"364","Name":"GRAL.ROMERO BASART-JOSE DE CADALSO","Loc":{"Longitude":"-3.76932662256668","Latitude":"40.3772164409894"},"Lines":"34 | N19"},{"Node":"365","Name":"GRAL.ROMERO BASART-RAFAEL FINAT","Loc":{"Longitude":"-3.77239233482866","Latitude":"40.3779482914937"},"Lines":"17 | 34 | 139"},{"Node":"366","Name":"GRAL.ROMERO BASART-RAFAEL FINAT","Loc":{"Longitude":"-3.77244215001081","Latitude":"40.3777002095857"},"Lines":"34 | 39 | 117"},{"Node":"367","Name":"OLIVA DE PLASENCIA-GRAL.R.BASART","Loc":{"Longitude":"-3.77511150994116","Latitude":"40.3793400429251"},"Lines":"34"},{"Node":"368","Name":"OLIVA DE PLASENCIA Nº 25","Loc":{"Longitude":"-3.77738337112866","Latitude":"40.3791176050286"},"Lines":"34"},{"Node":"369","Name":"MIRABEL-PZA.CUACOS DE YUSTE","Loc":{"Longitude":"-3.78015154613165","Latitude":"40.3788692571162"},"Lines":"34"},{"Node":"370","Name":"MIRABEL-PZA.CUACOS DE YUSTE","Loc":{"Longitude":"-3.78036000851253","Latitude":"40.378845329797"},"Lines":"34"},{"Node":"371","Name":"AV.GRAL.FANJUL -EST.RENFE AGUILAS","Loc":{"Longitude":"-3.77986669646112","Latitude":"40.3810198394382"},"Lines":"17 | 34"},{"Node":"372","Name":"AV.GRAL.FANJUL -EST.RENFE AGUILAS","Loc":{"Longitude":"-3.78046234417128","Latitude":"40.3815924067783"},"Lines":"17 | 34"},{"Node":"373","Name":"AV.GENERAL FANJUL","Loc":{"Longitude":"-3.77750892776192","Latitude":"40.3819095742676"},"Lines":"34"},{"Node":"374","Name":"OLIVA DE PLASENCIA Nº 28","Loc":{"Longitude":"-3.77583312648904","Latitude":"40.3793442195531"},"Lines":"34 | 39 | 117"},{"Node":"375","Name":"GRAL.ROMERO BASART-OLIVA PLASENCIA","Loc":{"Longitude":"-3.77454812133559","Latitude":"40.3789429088084"},"Lines":"39 | N19"},{"Node":"376","Name":"EUGENIA DE MONTIJO-PZA.EMPERATRIZ","Loc":{"Longitude":"-3.75106809378965","Latitude":"40.3741200531168"},"Lines":"34 | 35 | 47 | 139 | N17"},{"Node":"377","Name":"EUGENIA DE MONTIJO-PZA.EMPERATRIZ","Loc":{"Longitude":"-3.75121822741514","Latitude":"40.3743803429748"},"Lines":"35 | 47 | N17"},{"Node":"378","Name":"EUGENIA DE MONTIJO-PZA.PARTERRE","Loc":{"Longitude":"-3.75079657891271","Latitude":"40.3751308317012"},"Lines":"34 | 35 | 47 | 139 | N17"},{"Node":"379","Name":"EUGENIA DE MONTIJO-PZA.PARTERRE","Loc":{"Longitude":"-3.75104613788593","Latitude":"40.3753274134996"},"Lines":"35 | 47 | N17"},{"Node":"380","Name":"Pº ACACIAS-DR.VALLEJO NAJERA","Loc":{"Longitude":"-3.71111261934453","Latitude":"40.4024400613707"},"Lines":"34 | 36 | 62 | 116 | 118 | 119"},{"Node":"381","Name":"Pº ACACIAS-Pº OLMOS","Loc":{"Longitude":"-3.70981726819561","Latitude":"40.4030245880064"},"Lines":"34 | 36 | 62 | 116 | 118 | 119 | N12 | N15"},{"Node":"383","Name":"ULISES-ARTURO SORIA","Loc":{"Longitude":"-3.6559845801616","Latitude":"40.4560853959296"},"Lines":"120 | 122"},{"Node":"384","Name":"ULISES-ARTURO SORIA","Loc":{"Longitude":"-3.65595842570599","Latitude":"40.4562386969856"},"Lines":"120 | 122"},{"Node":"385","Name":"ULISES-ASURA","Loc":{"Longitude":"-3.65358054781033","Latitude":"40.457089979146"},"Lines":"120 | 122"},{"Node":"386","Name":"ULISES-ASURA","Loc":{"Longitude":"-3.65368858465166","Latitude":"40.4572470266825"},"Lines":"120 | 122"},{"Node":"387","Name":"MOSCATELAR-PARMA","Loc":{"Longitude":"-3.64989651253905","Latitude":"40.4571512545002"},"Lines":"120 | 122"},{"Node":"388","Name":"MOSCATELAR-PARMA","Loc":{"Longitude":"-3.64925509677768","Latitude":"40.4572944919845"},"Lines":"120 | 122"},{"Node":"389","Name":"MOSCATELAR-MILAN","Loc":{"Longitude":"-3.64733909914007","Latitude":"40.4571250388485"},"Lines":"120 | 122"},{"Node":"390","Name":"MOSCATELAR-MILAN","Loc":{"Longitude":"-3.64681071015532","Latitude":"40.4573712343082"},"Lines":"120 | 122"},{"Node":"391","Name":"SILVANO-PZA.DEL LICEO","Loc":{"Longitude":"-3.64379050213177","Latitude":"40.4579015773839"},"Lines":"120 | 122"},{"Node":"392","Name":"SILVANO-PZA.DEL LICEO","Loc":{"Longitude":"-3.6439785452001","Latitude":"40.4579861172466"},"Lines":"120 | 122"},{"Node":"393","Name":"SILVANO-COL.VIRGEN DE LA ESPERANZA","Loc":{"Longitude":"-3.64231269694124","Latitude":"40.4596665375734"},"Lines":"120 | 122"},{"Node":"394","Name":"SILVANO-COL.VIRGEN DE LA ESPERANZA","Loc":{"Longitude":"-3.64263764520051","Latitude":"40.4596512212085"},"Lines":"120 | 122"},{"Node":"395","Name":"SILVANO-ALCORISA","Loc":{"Longitude":"-3.63925321693332","Latitude":"40.4620213005725"},"Lines":"120 | 122"},{"Node":"396","Name":"SILVANO-ALCORISA","Loc":{"Longitude":"-3.64012528329775","Latitude":"40.4617056730117"},"Lines":"120 | 122"},{"Node":"397","Name":"SILVANO-EL ALGABEÑO","Loc":{"Longitude":"-3.63751925237252","Latitude":"40.4626389664811"},"Lines":"120 | 122"},{"Node":"398","Name":"SILVANO-EL ALGABEÑO","Loc":{"Longitude":"-3.63778052156535","Latitude":"40.4628267165615"},"Lines":"120 | 122"},{"Node":"399","Name":"FEDERICO MOMPOU-ISABEL COLBRAND","Loc":{"Longitude":"-3.67918126545993","Latitude":"40.5108161316913"},"Lines":"N24"},{"Node":"405","Name":"CAMPO NACIONES-GTA.JUAN DE BORBON","Loc":{"Longitude":"-3.61544665155639","Latitude":"40.4613574770932"},"Lines":"112 | 122"},{"Node":"406","Name":"CAMPO NACIONES-GTA.J.DE BORBON","Loc":{"Longitude":"-3.61598252810254","Latitude":"40.4615122854963"},"Lines":"112 | 122"},{"Node":"408","Name":"AV.RAMON Y CAJAL-AV.LA PAZ","Loc":{"Longitude":"-3.66119830617096","Latitude":"40.453596286916"},"Lines":"9 | 72 | 73 | 120 | N2"},{"Node":"409","Name":"AV.RAMON Y CAJAL-AV.LA PAZ","Loc":{"Longitude":"-3.66161247447079","Latitude":"40.453738065171"},"Lines":"9 | 72 | 73 | 120 | N2"},{"Node":"410","Name":"AV.RAMON Y CAJAL-MOSTOLES","Loc":{"Longitude":"-3.66826255667247","Latitude":"40.4523845640708"},"Lines":"43 | 120"},{"Node":"411","Name":"AV.RAMON Y CAJAL-MOSTOLES","Loc":{"Longitude":"-3.66853664353517","Latitude":"40.4526712697962"},"Lines":"43 | 120"},{"Node":"412","Name":"AV.RAMON Y CAJAL-PPE.VERGARA","Loc":{"Longitude":"-3.67685221440327","Latitude":"40.4516049435458"},"Lines":"43 | 52 | 120"},{"Node":"413","Name":"AV.RAMON Y CAJAL-PPE.VERGARA","Loc":{"Longitude":"-3.67710193651738","Latitude":"40.4518106903875"},"Lines":"43 | 52 | 120"},{"Node":"414","Name":"PRINCIPE DE VERGARA-PZA.CATALUÑA","Loc":{"Longitude":"-3.6776223622325","Latitude":"40.4496094509466"},"Lines":"16 | 29 | 52 | N1"},{"Node":"415","Name":"PRINCIPE DE VERGARA-PZA.CATALUÑA","Loc":{"Longitude":"-3.67800853381629","Latitude":"40.4492738574589"},"Lines":"16 | 29 | 52"},{"Node":"416","Name":"AV.DR.ARCE-PZA.SANTA GEMA","Loc":{"Longitude":"-3.68045460944679","Latitude":"40.4474577089214"},"Lines":"7 | 16 | 19 | 51 | N1"},{"Node":"417","Name":"AV.DR.ARCE-PZA.SANTA GEMA","Loc":{"Longitude":"-3.68086814417561","Latitude":"40.4475363590059"},"Lines":"16 | 19"},{"Node":"418","Name":"AV.DOCTOR ARCE-VELAZQUEZ","Loc":{"Longitude":"-3.68214010281773","Latitude":"40.446204549616"},"Lines":"16 | 19 | 51 | N1"},{"Node":"419","Name":"JOAQUIN COSTA-PZA.REP.ARGENTINA","Loc":{"Longitude":"-3.68618456923564","Latitude":"40.4461716433034"},"Lines":"7 | C2"},{"Node":"420","Name":"JOAQUIN COSTA-PZA.REP.ARGENTINA","Loc":{"Longitude":"-3.68623813174609","Latitude":"40.4456397948354"},"Lines":"7 | C1"},{"Node":"421","Name":"JOAQUIN COSTA-N.MINISTERIOS","Loc":{"Longitude":"-3.69012216869494","Latitude":"40.4460671604009"},"Lines":"7 | C1"},{"Node":"422","Name":"JOAQUIN COSTA-N.MINISTERIOS","Loc":{"Longitude":"-3.69005555719602","Latitude":"40.4464729623521"},"Lines":"7 | C2"},{"Node":"423","Name":"VELAZQUEZ-VILLANUEVA","Loc":{"Longitude":"-3.6842085978824","Latitude":"40.4222103360285"},"Lines":"1 | 9 | 19 | 51 | 74"},{"Node":"424","Name":"VELAZQUEZ-GOYA","Loc":{"Longitude":"-3.68402393107085","Latitude":"40.4249321557231"},"Lines":"1 | 9 | 19 | 51 | 74 | N4"},{"Node":"425","Name":"VELAZQUEZ-AYALA","Loc":{"Longitude":"-3.68379209699484","Latitude":"40.4276542524136"},"Lines":"1 | 9 | 19 | 51 | 74"},{"Node":"426","Name":"VELAZQUEZ-J.ORTEGA Y GASSET","Loc":{"Longitude":"-3.68351054073109","Latitude":"40.4301243881932"},"Lines":"1 | 9 | 19 | 51 | 74 | N4"},{"Node":"427","Name":"VELAZQUEZ-JUAN BRAVO","Loc":{"Longitude":"-3.68340134447385","Latitude":"40.4321520631214"},"Lines":"9 | 19 | 51 | N4"},{"Node":"428","Name":"VELAZQUEZ-DIEGO DE LEON","Loc":{"Longitude":"-3.68320337749229","Latitude":"40.4347298112048"},"Lines":"9 | 19 | 51 | N4"},{"Node":"430","Name":"VELAZQUEZ-LOPEZ DE HOYOS","Loc":{"Longitude":"-3.68271244057554","Latitude":"40.4398228001346"},"Lines":"16 | 19 | 51 | N1"},{"Node":"431","Name":"VELAZQUEZ-JOAQUIN COSTA","Loc":{"Longitude":"-3.68265834291668","Latitude":"40.441471767868"},"Lines":"16 | 19 | 51"},{"Node":"432","Name":"VELAZQUEZ Nº 150","Loc":{"Longitude":"-3.68251073228596","Latitude":"40.4432023673969"},"Lines":"16 | 19 | 51 | N1"},{"Node":"433","Name":"CINCA-PZA.DE CATALUÑA","Loc":{"Longitude":"-3.67947149294487","Latitude":"40.4493733898482"},"Lines":"7 | 51"},{"Node":"434","Name":"CINCA-SERRANO","Loc":{"Longitude":"-3.68182733505636","Latitude":"40.4502694500038"},"Lines":"7 | 51"},{"Node":"435","Name":"SERRANO-HOSPITAL SAN RAFAEL","Loc":{"Longitude":"-3.68100895348365","Latitude":"40.4521481369488"},"Lines":"7 | 51"},{"Node":"436","Name":"SERRANO-HOSPITAL SAN RAFAEL","Loc":{"Longitude":"-3.68132835710285","Latitude":"40.452245356839"},"Lines":"51 | N1"},{"Node":"437","Name":"SERRANO-PRINCIPE DE VERGARA","Loc":{"Longitude":"-3.67782643969951","Latitude":"40.4546713108363"},"Lines":"7 | 51"},{"Node":"438","Name":"SERRANO-PRINCIPE DE VERGARA","Loc":{"Longitude":"-3.67863772849502","Latitude":"40.454423315929"},"Lines":"51 | N1"},{"Node":"439","Name":"PRINCIPE DE VERGARA-COLOMBIA","Loc":{"Longitude":"-3.67665808216794","Latitude":"40.4581285867068"},"Lines":"7 | 16 | 29 | 51 | N1"},{"Node":"440","Name":"PRINCIPE DE VERGARA-COLOMBIA","Loc":{"Longitude":"-3.67719509019269","Latitude":"40.45757589907"},"Lines":"7 | 16 | 29 | 51 | N1"},{"Node":"441","Name":"SERRANO-SEGRE","Loc":{"Longitude":"-3.68265034841936","Latitude":"40.4500213578374"},"Lines":"7 | 51 | N1"},{"Node":"442","Name":"SERRANO-GUADIANA","Loc":{"Longitude":"-3.68393824474417","Latitude":"40.4479326794257"},"Lines":"7 | 51 | N1"},{"Node":"443","Name":"SERRANO-PZA.REP.ARGENTINA","Loc":{"Longitude":"-3.68590833175354","Latitude":"40.4445156237075"},"Lines":"16 | 19 | 51 | N1"},{"Node":"444","Name":"SERRANO-INST.RAMIRO DE MAEZTU","Loc":{"Longitude":"-3.68613610953573","Latitude":"40.4425593202629"},"Lines":"16 | 19 | 51 | N1"},{"Node":"445","Name":"SERRANO Nº 111","Loc":{"Longitude":"-3.68625958718071","Latitude":"40.4407838141112"},"Lines":"16 | 19 | 51"},{"Node":"446","Name":"SERRANO-MARIA DE MOLINA","Loc":{"Longitude":"-3.68643560897369","Latitude":"40.4383773650116"},"Lines":"9 | 16 | 19 | 51 | N1"},{"Node":"447","Name":"SERRANO-GRAL.ORAA","Loc":{"Longitude":"-3.68666965419273","Latitude":"40.4358804804577"},"Lines":"9 | 16 | 19 | 51 | N4"},{"Node":"448","Name":"SERRANO-MALDONADO","Loc":{"Longitude":"-3.68681504029628","Latitude":"40.4339426794875"},"Lines":"9 | 19 | 51 | N4"},{"Node":"449","Name":"SERRANO-MQUES.VILLAMAGNA","Loc":{"Longitude":"-3.6872550175206","Latitude":"40.4296697926079"},"Lines":"1 | 9 | 19 | 51 | 74 | N4"},{"Node":"451","Name":"SERRANO-GOYA","Loc":{"Longitude":"-3.68791482385042","Latitude":"40.4261523539965"},"Lines":"1 | 9 | 19 | 51 | 74 | N4"},{"Node":"452","Name":"SERRANO-MUSEO ARQUEOLOGICO","Loc":{"Longitude":"-3.68843778838563","Latitude":"40.4230951840549"},"Lines":"1 | 9 | 19 | 51 | 74 | N4"},{"Node":"453","Name":"AV.CONCHA ESPINA-PZA.S.CORAZONES","Loc":{"Longitude":"-3.6850505811785","Latitude":"40.4517999715602"},"Lines":"43 | 120"},{"Node":"454","Name":"AV.CONCHA ESPINA-PZA.S.CORAZONES","Loc":{"Longitude":"-3.68513596123888","Latitude":"40.4520787451173"},"Lines":"43 | 120"},{"Node":"455","Name":"AV.CONCHA ESPINA-SERRANO","Loc":{"Longitude":"-3.68088548935179","Latitude":"40.4515993144675"},"Lines":"43 | 120"},{"Node":"456","Name":"AV.CONCHA ESPINA-SERRANO","Loc":{"Longitude":"-3.68092413494886","Latitude":"40.4519234109621"},"Lines":"7 | 43 | 120"},{"Node":"457","Name":"AV.RAMON Y CAJAL-VICTOR DE LA SERNA","Loc":{"Longitude":"-3.67409227741076","Latitude":"40.4515759989106"},"Lines":"43 | 120"},{"Node":"458","Name":"AV.RAMON Y CAJAL-V.DE LA SERNA","Loc":{"Longitude":"-3.67402484560371","Latitude":"40.4519097242795"},"Lines":"43 | 120"},{"Node":"459","Name":"AV.RAMON Y CAJAL Nº 32","Loc":{"Longitude":"-3.67091504917904","Latitude":"40.4522791355938"},"Lines":"43 | 120"},{"Node":"460","Name":"AV.RAMON Y CAJAL Nº 43","Loc":{"Longitude":"-3.67097615979181","Latitude":"40.452494997377"},"Lines":"43 | 120"},{"Node":"461","Name":"AV.RAMON Y CAJAL-PADRE CLARET","Loc":{"Longitude":"-3.66500950559235","Latitude":"40.4525834722199"},"Lines":"120"},{"Node":"462","Name":"AV.RAMON Y CAJAL-PADRE CLARET","Loc":{"Longitude":"-3.66596812061237","Latitude":"40.4526230078517"},"Lines":"9 | 72 | 73 | 120 | N2"},{"Node":"463","Name":"JOSE SILVA-AGASTIA","Loc":{"Longitude":"-3.65839241842708","Latitude":"40.4548735341424"},"Lines":"120"},{"Node":"464","Name":"JOSE SILVA-AGASTIA","Loc":{"Longitude":"-3.65857923367576","Latitude":"40.4549445437492"},"Lines":"120"},{"Node":"465","Name":"SILVANO-JOSE DOMINGO RUS","Loc":{"Longitude":"-3.63291923200311","Latitude":"40.4626551907861"},"Lines":"120"},{"Node":"466","Name":"SILVANO-JOSE DOMINGO RUS","Loc":{"Longitude":"-3.63292035138646","Latitude":"40.4628533824489"},"Lines":"120 | N3"},{"Node":"467","Name":"PEDROÑERAS-SILVANO","Loc":{"Longitude":"-3.62957883802418","Latitude":"40.4630788042152"},"Lines":"120"},{"Node":"468","Name":"PEDROÑERAS-SILVANO","Loc":{"Longitude":"-3.62973776462626","Latitude":"40.463005868152"},"Lines":"120 | N3"},{"Node":"469","Name":"PEDROÑERAS-EL PROVENCIO","Loc":{"Longitude":"-3.63006289098391","Latitude":"40.464549141303"},"Lines":"73 | 120"},{"Node":"470","Name":"PEDROÑERAS-EL PROVENCIO","Loc":{"Longitude":"-3.63007856188409","Latitude":"40.4641346425729"},"Lines":"73 | 120 | N3"},{"Node":"471","Name":"MOTA DEL CUERVO Nº 9","Loc":{"Longitude":"-3.63171297522001","Latitude":"40.4650401503748"},"Lines":"73 | 120"},{"Node":"472","Name":"MOTA DEL CUERVO Nº 48","Loc":{"Longitude":"-3.63174826611451","Latitude":"40.4648327511498"},"Lines":"73 | 120 | N3"},{"Node":"473","Name":"MOTA DEL CUERVO-MOTILLA DEL PALANCAR","Loc":{"Longitude":"-3.63418458708082","Latitude":"40.4648870015256"},"Lines":"73 | 120"},{"Node":"474","Name":"MOTA DEL CUERVO-MOTILLA DEL PALANCAR","Loc":{"Longitude":"-3.63421301773508","Latitude":"40.4647742334883"},"Lines":"73 | 120 | N3"},{"Node":"475","Name":"LOS EMIGRANTES-TREFACIO","Loc":{"Longitude":"-3.63599237143539","Latitude":"40.4658365438166"},"Lines":"112 | 120 | 153"},{"Node":"476","Name":"LOS EMIGRANTES-CTRA.DE CANILLAS","Loc":{"Longitude":"-3.63630505994307","Latitude":"40.4658077990729"},"Lines":"112 | 120 | 153"},{"Node":"477","Name":"LOS EMIGRANTES-TRIBALDOS","Loc":{"Longitude":"-3.63692155113874","Latitude":"40.4674665671797"},"Lines":"112 | 120 | 153"},{"Node":"478","Name":"LOS EMIGRANTES-TRIBALDOS","Loc":{"Longitude":"-3.63722745672688","Latitude":"40.4673432629328"},"Lines":"112 | 120 | 153"},{"Node":"479","Name":"AYACUCHO-MAR ADRIATICO","Loc":{"Longitude":"-3.63920601128484","Latitude":"40.4700440607211"},"Lines":"120 | 125 | 172 | 172SF"},{"Node":"480","Name":"AYACUCHO-GTA.SANDRO PERTINI","Loc":{"Longitude":"-3.64192582587426","Latitude":"40.4700785641265"},"Lines":"87 | 120 | 125 | 172 | 172SF"},{"Node":"481","Name":"VALDETORRES DE JARAMA-LIBERACION","Loc":{"Longitude":"-3.64319441999885","Latitude":"40.4704363878964"},"Lines":"120 | 125 | 172 | 172SF"},{"Node":"482","Name":"VALDETORRES DE JARAMA-LIBERACION","Loc":{"Longitude":"-3.6436015883142","Latitude":"40.4703395312208"},"Lines":"120 | 125 | 172 | 172SF"},{"Node":"483","Name":"VALDETORRES DE JARAMA-ANGEL LUIS HERRAN","Loc":{"Longitude":"-3.64508393422979","Latitude":"40.4712682157485"},"Lines":"120 | 125 | 172 | 172SF"},{"Node":"484","Name":"VALDETORRES DE JARAMA-ANGEL LUIS HERRAN","Loc":{"Longitude":"-3.64508729414698","Latitude":"40.4710024323058"},"Lines":"120 | 125 | 172 | 172SF"},{"Node":"485","Name":"VALDETORRES DE JARAMA-ROGELIO MUÑOZ","Loc":{"Longitude":"-3.64640047614461","Latitude":"40.4718554658143"},"Lines":"120 | 125 | 172 | 172SF"},{"Node":"486","Name":"VALDETORRES DE JARAMA-ROGELIO MUÑOZ","Loc":{"Longitude":"-3.64668543851004","Latitude":"40.4717007221186"},"Lines":"120 | 125 | 172 | 172SF"},{"Node":"487","Name":"VALDETORRES DE JARAMA-PZA.SANTOS HUMOSA","Loc":{"Longitude":"-3.64825194702036","Latitude":"40.4727099762731"},"Lines":"120 | 125 | 172 | 172SF"},{"Node":"488","Name":"PZA.SANTOS DE LA HUMOSA","Loc":{"Longitude":"-3.64942321676021","Latitude":"40.4729826909271"},"Lines":"120"},{"Node":"489","Name":"AREQUIPA-TORRESANDINO","Loc":{"Longitude":"-3.64078980633241","Latitude":"40.4690443194733"},"Lines":"87 | 120 | 125 | 172 | 172SF"},{"Node":"490","Name":"AREQUIPA-LOS EMIGRANTES","Loc":{"Longitude":"-3.63905409121109","Latitude":"40.4690268847534"},"Lines":"120"},{"Node":"491","Name":"ALMAGRO-PZA.ALONSO MARTINEZ","Loc":{"Longitude":"-3.69510250401341","Latitude":"40.4281004271183"},"Lines":"7 | N25 | N26"},{"Node":"492","Name":"ALMAGRO-ZURBANO","Loc":{"Longitude":"-3.6926895814523","Latitude":"40.430421196321"},"Lines":"7"},{"Node":"493","Name":"ALMAGRO-ZURBANO","Loc":{"Longitude":"-3.69332046822398","Latitude":"40.430219222174"},"Lines":"7"},{"Node":"494","Name":"ALMAGRO-Pº EDUARDO DATO","Loc":{"Longitude":"-3.69149061132661","Latitude":"40.432284220689"},"Lines":"7"},{"Node":"495","Name":"ALMAGRO-Pº EDUARDO DATO","Loc":{"Longitude":"-3.69177613397615","Latitude":"40.4325347678537"},"Lines":"7"},{"Node":"496","Name":"AV.Cº SANTIAGO-ESTELLA","Loc":{"Longitude":"-3.67396272988162","Latitude":"40.4967702043199"},"Lines":"172 | 176 | 172SF"},{"Node":"497","Name":"ARTURO SORIA-JULIO DANVILA","Loc":{"Longitude":"-3.66696259386287","Latitude":"40.4712298400711"},"Lines":"7 | 29 | 107 | N1"},{"Node":"498","Name":"ARTURO SORIA-SERRANO GALVACHE","Loc":{"Longitude":"-3.66740915549595","Latitude":"40.4710560963925"},"Lines":"7 | 29 | 107 | N1"},{"Node":"499","Name":"ARTURO SORIA-ELADIO LOPEZ VILCHES","Loc":{"Longitude":"-3.66752569531464","Latitude":"40.4732986569998"},"Lines":"7 | 29 | 107"},{"Node":"500","Name":"ARTURO SORIA-ELADIO LOPEZ VILCHES","Loc":{"Longitude":"-3.66798513483721","Latitude":"40.473232944449"},"Lines":"7 | 29 | 107"},{"Node":"501","Name":"AV.SAN LUIS-ARTURO SORIA","Loc":{"Longitude":"-3.66772372849211","Latitude":"40.4755047108044"},"Lines":"7 | 107 | 125 | N1"},{"Node":"502","Name":"AV.SAN LUIS-ARTURO SORIA","Loc":{"Longitude":"-3.66791660185593","Latitude":"40.4758459387771"},"Lines":"7 | 107"},{"Node":"503","Name":"AV.SAN LUIS-MESENA","Loc":{"Longitude":"-3.66582985842464","Latitude":"40.474794900805"},"Lines":"7 | 107 | 125 | N1"},{"Node":"504","Name":"AV.SAN LUIS-GOLFO DE SALONICA","Loc":{"Longitude":"-3.66590294865144","Latitude":"40.4750287134609"},"Lines":"7 | 107 | 125"},{"Node":"505","Name":"CUEVAS DE ALMANZORA-AV.SAN LUIS","Loc":{"Longitude":"-3.66293107263637","Latitude":"40.4739376654337"},"Lines":"7 | N1"},{"Node":"506","Name":"CUEVAS DE ALMANZORA-AV.SAN LUIS","Loc":{"Longitude":"-3.66316806655997","Latitude":"40.4740444157985"},"Lines":"7"},{"Node":"507","Name":"CUEVAS DE ALMANZORA-BACARES","Loc":{"Longitude":"-3.6607884220702","Latitude":"40.4755985541242"},"Lines":"7 | 29 | 129 | N1"},{"Node":"508","Name":"CUEVAS DE ALMANZORA Nº 18","Loc":{"Longitude":"-3.65882007512723","Latitude":"40.4769971512699"},"Lines":"7 | 29 | 129 | N1"},{"Node":"509","Name":"ALICUN-SOMONTIN","Loc":{"Longitude":"-3.65937249981808","Latitude":"40.4792012014537"},"Lines":"7 | 29 | 129"},{"Node":"510","Name":"VELEZ RUBIO Nº 113","Loc":{"Longitude":"-3.66114449057599","Latitude":"40.4782271377917"},"Lines":"7 | 29 | 129"},{"Node":"511","Name":"BACARES-VELEZ RUBIO","Loc":{"Longitude":"-3.66238895801023","Latitude":"40.4764002149305"},"Lines":"7 | 29"},{"Node":"512","Name":"BACARES-CUEVAS DE ALMANZORA","Loc":{"Longitude":"-3.66127130154062","Latitude":"40.475514716553"},"Lines":"7"},{"Node":"513","Name":"ARTURO SORIA-CUARTEL INFANTERIA MARINA","Loc":{"Longitude":"-3.66846383457014","Latitude":"40.4751130547413"},"Lines":"7 | 29 | 107 | N1"},{"Node":"514","Name":"PRINCIPE DE VERGARA-SERRANO","Loc":{"Longitude":"-3.67745597324922","Latitude":"40.4541869935126"},"Lines":"7 | 16 | 29"},{"Node":"515","Name":"PRINCIPE DE VERGARA-SERRANO","Loc":{"Longitude":"-3.67718193279011","Latitude":"40.453909317842"},"Lines":"16 | 29 | N1"},{"Node":"516","Name":"PRINCIPE DE VERGARA-CONCHA ESPINA","Loc":{"Longitude":"-3.67764040568741","Latitude":"40.4524381698761"},"Lines":"7 | 16 | 29"},{"Node":"517","Name":"PRINCIPE DE VERGARA-CONCHA ESPINA","Loc":{"Longitude":"-3.67742833988118","Latitude":"40.4514304034493"},"Lines":"16 | 29"},{"Node":"518","Name":"ALMAGRO Nº 3","Loc":{"Longitude":"-3.69511855146767","Latitude":"40.4285147459395"},"Lines":"7"},{"Node":"520","Name":"FDEZ.DE LOS RIOS-HILARION ESLAVA","Loc":{"Longitude":"-3.71690203527751","Latitude":"40.4355125614956"},"Lines":"16 | 61"},{"Node":"521","Name":"FDEZ.DE LOS RIOS-GUZMAN EL BUENO","Loc":{"Longitude":"-3.7134525053594","Latitude":"40.435367201822"},"Lines":"16 | 61"},{"Node":"522","Name":"FDEZ.DE LOS RIOS-VALLEHERMOSO","Loc":{"Longitude":"-3.70904049119233","Latitude":"40.4351420514227"},"Lines":"16 | 61"},{"Node":"523","Name":"FDEZ.DE LOS RIOS-MAGALLANES","Loc":{"Longitude":"-3.70491145665774","Latitude":"40.4349150100307"},"Lines":"16 | 61"},{"Node":"524","Name":"CARDENAL CISNEROS-ELOY GONZALO","Loc":{"Longitude":"-3.70286296806589","Latitude":"40.4342157508152"},"Lines":"16 | 61"},{"Node":"525","Name":"ELOY GONZALO-JUAN DE AUSTRIA","Loc":{"Longitude":"-3.6997448641147","Latitude":"40.4346850867498"},"Lines":"16 | 61"},{"Node":"526","Name":"ELOY GONZALO-JUAN DE AUSTRIA","Loc":{"Longitude":"-3.69982972265329","Latitude":"40.4349097992447"},"Lines":"16 | 61"},{"Node":"527","Name":"GRAL.MTNEZ.CAMPOS-FDEZ.DE LA HOZ","Loc":{"Longitude":"-3.69605794266702","Latitude":"40.4350226240769"},"Lines":"5 | 16 | 61"},{"Node":"528","Name":"GRAL.MTNEZ.CAMPOS-FDEZ.DE LA HOZ","Loc":{"Longitude":"-3.69525901953917","Latitude":"40.4352976942766"},"Lines":"5 | 16 | 61"},{"Node":"529","Name":"GRAL.MTNEZ.CAMPOS-FORTUNY","Loc":{"Longitude":"-3.69054126311367","Latitude":"40.4351457446768"},"Lines":"7 | 16 | 40 | 61 | 147"},{"Node":"530","Name":"GRAL.MTNEZ.CAMPOS-FORTUNY","Loc":{"Longitude":"-3.69002310722513","Latitude":"40.4353875724595"},"Lines":"5 | 16 | 61"},{"Node":"532","Name":"MARIA DE MOLINA-SERRANO","Loc":{"Longitude":"-3.68731411525436","Latitude":"40.4378045860482"},"Lines":"12 | 16 | N1"},{"Node":"533","Name":"MARIA DE MOLINA-SERRANO","Loc":{"Longitude":"-3.68665209599775","Latitude":"40.4380337389892"},"Lines":"12"},{"Node":"534","Name":"LOPEZ DE HOYOS-VELAZQUEZ","Loc":{"Longitude":"-3.68386658891687","Latitude":"40.4385186919547"},"Lines":"16"},{"Node":"535","Name":"PZA.PERU-AV.PIO XII","Loc":{"Longitude":"-3.67683533108994","Latitude":"40.4606635793271"},"Lines":"150"},{"Node":"536","Name":"AV.DOCTOR ARCE-VELAZQUEZ","Loc":{"Longitude":"-3.68329450742494","Latitude":"40.4460806260756"},"Lines":"16 | 19"},{"Node":"537","Name":"GRAL.ORAA-Pº CASTELLANA","Loc":{"Longitude":"-3.68802622641627","Latitude":"40.4359445001246"},"Lines":"16 | 61"},{"Node":"538","Name":"ELOY GONZALO-CARDENAL CISNEROS","Loc":{"Longitude":"-3.70312296933865","Latitude":"40.4341330911583"},"Lines":"16 | 61"},{"Node":"540","Name":"FERNANDO EL CATOLICO-MAGALLANES","Loc":{"Longitude":"-3.70593916811244","Latitude":"40.433971811592"},"Lines":"16 | 61"},{"Node":"541","Name":"FERNANDO EL CATOLICO-VALLEHERMOSO","Loc":{"Longitude":"-3.70924297346278","Latitude":"40.4342128831993"},"Lines":"16 | 61"},{"Node":"542","Name":"FERNANDO EL CATOLICO-G.EL BUENO","Loc":{"Longitude":"-3.71291180347445","Latitude":"40.4344065682733"},"Lines":"16 | 61"},{"Node":"543","Name":"FERNANDO EL CATOLICO-HILARION ESLAVA","Loc":{"Longitude":"-3.71702884894142","Latitude":"40.4346153799561"},"Lines":"16 | 61"},{"Node":"544","Name":"CONCEPCION JERONIMA","Loc":{"Longitude":"-3.70688514013632","Latitude":"40.4139299618634"},"Lines":"17"},{"Node":"545","Name":"TOLEDO-LA LATINA","Loc":{"Longitude":"-3.7083694204266","Latitude":"40.4115965583065"},"Lines":"17 | 18 | 23 | 35 | N26"},{"Node":"546","Name":"TOLEDO-LA LATINA","Loc":{"Longitude":"-3.70793617996001","Latitude":"40.4118694790403"},"Lines":"17 | 18 | 23 | 35 | N26"},{"Node":"547","Name":"TOLEDO-HUMILLADERO","Loc":{"Longitude":"-3.71050421569425","Latitude":"40.4088942791093"},"Lines":"17 | 18 | 23 | 35 | 60 | N26"},{"Node":"548","Name":"TOLEDO-HUMILLADERO","Loc":{"Longitude":"-3.70972774071859","Latitude":"40.4096242690145"},"Lines":"17 | 18 | 23 | 35 | N26"},{"Node":"549","Name":"Pº PONTONES-RONDA SEGOVIA","Loc":{"Longitude":"-3.71269008095662","Latitude":"40.4066511070505"},"Lines":"17 | 41"},{"Node":"550","Name":"Pº PONTONES-Pº IMPERIAL","Loc":{"Longitude":"-3.71563286307942","Latitude":"40.4049527704638"},"Lines":"17 | 41 | N16"},{"Node":"551","Name":"Pº PONTONES-Pº IMPERIAL","Loc":{"Longitude":"-3.71548691990537","Latitude":"40.4047689866311"},"Lines":"17 | 41 | N16"},{"Node":"552","Name":"Pº PONTONES-Pº MELANCOLICOS","Loc":{"Longitude":"-3.71988824464958","Latitude":"40.404277743326"},"Lines":"17 | 36 | N16"},{"Node":"553","Name":"Pº PONTONES-Pº MELANCOLICOS","Loc":{"Longitude":"-3.71987502622474","Latitude":"40.4040390855543"},"Lines":"17 | 36 | 62 | N16"},{"Node":"554","Name":"Pº ERMITA DEL SANTO-PTE.SAN ISIDRO","Loc":{"Longitude":"-3.72464639606415","Latitude":"40.4038922087533"},"Lines":"17 | 25 | N16"},{"Node":"555","Name":"VIA CARPETANA-CARAMUEL","Loc":{"Longitude":"-3.73088124723997","Latitude":"40.4017629246485"},"Lines":"17 | N16"},{"Node":"556","Name":"VIA CARPETANA-CARAMUEL","Loc":{"Longitude":"-3.73009309019138","Latitude":"40.4018940232207"},"Lines":"17 | N16"},{"Node":"557","Name":"VIA CARPETANA-GALLUR","Loc":{"Longitude":"-3.73547431703291","Latitude":"40.3982383302884"},"Lines":"17 | N16"},{"Node":"558","Name":"VIA CARPETANA-GALLUR","Loc":{"Longitude":"-3.73491008885695","Latitude":"40.3984356071861"},"Lines":"17 | 25 | N16"},{"Node":"559","Name":"VIA CARPETANA-MOCHUELO","Loc":{"Longitude":"-3.73755406256155","Latitude":"40.3966034720849"},"Lines":"17 | N16"},{"Node":"560","Name":"VIA CARPETANA-MOCHUELO","Loc":{"Longitude":"-3.73757340837561","Latitude":"40.3962159592594"},"Lines":"17 | 25 | N16"},{"Node":"561","Name":"VIA CARPETANA-DR.ZOFIO","Loc":{"Longitude":"-3.73861068215611","Latitude":"40.3951642967907"},"Lines":"17"},{"Node":"562","Name":"AV.DE LA PESETA-AV.CARABANCHEL ALTO","Loc":{"Longitude":"-3.75432515298005","Latitude":"40.3621438104712"},"Lines":"35 | 118 | 155 | N17"},{"Node":"563","Name":"VIA CARPETANA-NTRA.SRA.VALVANERA","Loc":{"Longitude":"-3.74017459019104","Latitude":"40.3937849337127"},"Lines":"17 | N16"},{"Node":"564","Name":"VIA CARPETANA-LAGUNA","Loc":{"Longitude":"-3.74265745199809","Latitude":"40.3917960521692"},"Lines":"17"},{"Node":"565","Name":"VIA CARPETANA-LAGUNA","Loc":{"Longitude":"-3.741736954289","Latitude":"40.3922704232039"},"Lines":"17"},{"Node":"566","Name":"VIA CARPETANA-PETIRROJO","Loc":{"Longitude":"-3.74413744693918","Latitude":"40.3898315837336"},"Lines":"17"},{"Node":"567","Name":"VIA CARPETANA-GTA.DEL EJERCITO","Loc":{"Longitude":"-3.74488730537246","Latitude":"40.3883763026243"},"Lines":"17"},{"Node":"568","Name":"GTA.PRADERA DE VAQUERIZAS","Loc":{"Longitude":"-3.72163885880491","Latitude":"40.4909197894497"},"Lines":"64"},{"Node":"569","Name":"BRAVO MURILLO-MARIA ZAYAS","Loc":{"Longitude":"-3.7005311654729","Latitude":"40.4589010151048"},"Lines":"66 | 124 | N23"},{"Node":"570","Name":"OCAÑA Nº 69","Loc":{"Longitude":"-3.75370098756938","Latitude":"40.3852471812636"},"Lines":"17 | N26"},{"Node":"571","Name":"OCAÑA Nº 100","Loc":{"Longitude":"-3.75314141976811","Latitude":"40.3855841575206"},"Lines":"17 | N26"},{"Node":"572","Name":"OCAÑA Nº 21","Loc":{"Longitude":"-3.75793364012027","Latitude":"40.384462793597"},"Lines":"17"},{"Node":"573","Name":"OCAÑA FRENTE Nº 21","Loc":{"Longitude":"-3.7580146938739","Latitude":"40.3843361360528"},"Lines":"17"},{"Node":"574","Name":"OCAÑA-CAMARENA","Loc":{"Longitude":"-3.7593472652425","Latitude":"40.3854985848892"},"Lines":"17 | N26"},{"Node":"575","Name":"INTERCAMBIADOR DE ALUCHE","Loc":{"Longitude":"-3.76102119047272","Latitude":"40.3863659804632"},"Lines":"117"},{"Node":"578","Name":"RAFAEL FINAT-AV.GRAL.FANJUL","Loc":{"Longitude":"-3.7652534210864","Latitude":"40.3837209547469"},"Lines":"117"},{"Node":"579","Name":"RAFAEL FINAT-AV.GRAL.FANJUL","Loc":{"Longitude":"-3.76444259295593","Latitude":"40.3839064916066"},"Lines":"117"},{"Node":"580","Name":"RAFAEL FINAT Nº 36","Loc":{"Longitude":"-3.76779769509044","Latitude":"40.381595990358"},"Lines":"117"},{"Node":"581","Name":"RAFAEL FINAT Nº 31","Loc":{"Longitude":"-3.76750529617302","Latitude":"40.3815889196226"},"Lines":"117"},{"Node":"582","Name":"RAFAEL FINAT-JOSE DE CADALSO","Loc":{"Longitude":"-3.77081945259137","Latitude":"40.378999320287"},"Lines":"117"},{"Node":"583","Name":"RAFAEL FINAT-JOSE DE CADALSO","Loc":{"Longitude":"-3.77027942724449","Latitude":"40.3791650770289"},"Lines":"117"},{"Node":"584","Name":"GRAL.ROMERO BASART-O.PLASENCIA","Loc":{"Longitude":"-3.77462852109567","Latitude":"40.37963156521"},"Lines":"17 | 139"},{"Node":"585","Name":"GRAL.ROMERO BASART-O.PLASENCIA","Loc":{"Longitude":"-3.77419643844276","Latitude":"40.378837151665"},"Lines":"34 | 117"},{"Node":"586","Name":"GRAL.ROMERO BASART-GRAL.FANJUL","Loc":{"Longitude":"-3.7755404903293","Latitude":"40.38182367464"},"Lines":"139"},{"Node":"587","Name":"GRAL.ROMERO BASART-GRAL.FANJUL","Loc":{"Longitude":"-3.77541152643337","Latitude":"40.3818785927096"},"Lines":"17 | 139"},{"Node":"588","Name":"NTRA.SRA.DE LA LUZ-NTRA.SRA.FATIMA","Loc":{"Longitude":"-3.74767345399338","Latitude":"40.384574537182"},"Lines":"17"},{"Node":"589","Name":"NTRA.SRA.FATIMA-FONTIVEROS","Loc":{"Longitude":"-3.74599448371702","Latitude":"40.3851349185049"},"Lines":"17 | 35 | N17 | N26"},{"Node":"590","Name":"Pº MUÑOZ GRANDES-OCA","Loc":{"Longitude":"-3.74426773871727","Latitude":"40.3877496512161"},"Lines":"17 | 35 | N17 | N26"},{"Node":"591","Name":"VIDAUBA-DAMASQUILLO","Loc":{"Longitude":"-3.76403171643143","Latitude":"40.3837110036699"},"Lines":"155"},{"Node":"592","Name":"VIA CARPETANA-Pº ERMITA DEL SANTO","Loc":{"Longitude":"-3.72511079566039","Latitude":"40.4054388587096"},"Lines":"17 | N16"},{"Node":"593","Name":"TOLEDO-PUERTA DE TOLEDO","Loc":{"Longitude":"-3.71172755977872","Latitude":"40.4059002661373"},"Lines":"17 | 18 | 23 | 35 | 41 | N16 | N26"},{"Node":"594","Name":"TOLEDO-PUERTA DE TOLEDO","Loc":{"Longitude":"-3.71214396939357","Latitude":"40.4061679777909"},"Lines":"18 | 23 | 35 | N26"},{"Node":"598","Name":"VIDAUBA Nº 14","Loc":{"Longitude":"-3.76315547098573","Latitude":"40.3815546040844"},"Lines":"155"},{"Node":"599","Name":"CTA.SAN VICENTE-CADARSO","Loc":{"Longitude":"-3.7142731115914","Latitude":"40.4215242894859"},"Lines":"25 | 39 | 46 | 75 | 138 | C2 | N18 | N19 | N20"},{"Node":"600","Name":"CTA.SAN VICENTE-CADARSO","Loc":{"Longitude":"-3.7135132205215","Latitude":"40.4216010465943"},"Lines":"25 | 39 | 46 | 75 | 138 | C1 | N18 | N19 | N20"},{"Node":"601","Name":"CTA.SAN VICENTE-ARRIAZA","Loc":{"Longitude":"-3.71633756927963","Latitude":"40.4205565793431"},"Lines":"25 | 39 | 46 | 75 | 138 | C2"},{"Node":"602","Name":"CTA.SAN VICENTE-ARRIAZA","Loc":{"Longitude":"-3.71538042796871","Latitude":"40.4203372707838"},"Lines":"25 | 39 | 46 | 75 | 138 | C1"},{"Node":"603","Name":"CTA.SAN VICENTE-PRINCIPE PIO","Loc":{"Longitude":"-3.718742148103","Latitude":"40.420541678841"},"Lines":"25 | 39 | 46 | 75 | 138 | C2 | N18 | N19 | N20"},{"Node":"604","Name":"CTA.SAN VICENTE-PRINCIPE PIO","Loc":{"Longitude":"-3.71909221944032","Latitude":"40.4202061712723"},"Lines":"25 | 39 | 46 | 75 | 138 | C1 | N18 | N19 | N20"},{"Node":"605","Name":"VIRGEN DEL PUERTO-GTA.SAN VICENTE","Loc":{"Longitude":"-3.72035707097615","Latitude":"40.4194325418675"},"Lines":"33"},{"Node":"606","Name":"VIRGEN DEL PUERTO-CAMPO DEL MORO","Loc":{"Longitude":"-3.72080580777646","Latitude":"40.4167765892418"},"Lines":"25 | 33"},{"Node":"607","Name":"VIRGEN DEL PUERTO-CAMPO DEL MORO","Loc":{"Longitude":"-3.72002099909634","Latitude":"40.4194211185583"},"Lines":"25 | 33"},{"Node":"608","Name":"VIRGEN DEL PUERTO-PTE.SEGOVIA","Loc":{"Longitude":"-3.72101894601607","Latitude":"40.4145860664524"},"Lines":"25 | 33"},{"Node":"609","Name":"VIRGEN DEL PUERTO-PTE.SEGOVIA","Loc":{"Longitude":"-3.72070581420659","Latitude":"40.4145474751124"},"Lines":"25 | 33"},{"Node":"611","Name":"GRAL.ROMERO BASART-CASUARINA","Loc":{"Longitude":"-3.76499666552806","Latitude":"40.3784928831742"},"Lines":"155"},{"Node":"612","Name":"Pº ERMITA DEL SANTO-AV.MANZANARES","Loc":{"Longitude":"-3.72353565559545","Latitude":"40.4101964791911"},"Lines":"25"},{"Node":"613","Name":"Pº ERMITA DEL SANTO-AV.MANZANARES","Loc":{"Longitude":"-3.72335928960619","Latitude":"40.4100984815523"},"Lines":"25"},{"Node":"614","Name":"Pº ERMITA DEL SANTO-SEPULVEDA","Loc":{"Longitude":"-3.72406886047784","Latitude":"40.4082922377987"},"Lines":"25"},{"Node":"615","Name":"Pº ERMITA DEL SANTO-SEPULVEDA","Loc":{"Longitude":"-3.72384398205145","Latitude":"40.4082035532337"},"Lines":"25"},{"Node":"616","Name":"Pº ERMITA DEL SANTO-VIA CARPETANA","Loc":{"Longitude":"-3.72472701962397","Latitude":"40.4059187408553"},"Lines":"25"},{"Node":"617","Name":"Pº ERMITA DEL SANTO-VIA CARPETANA","Loc":{"Longitude":"-3.72444920372129","Latitude":"40.4063889498081"},"Lines":"25"},{"Node":"618","Name":"GALLUR-VIA CARPETANA","Loc":{"Longitude":"-3.73561914159117","Latitude":"40.3985527274286"},"Lines":"25"},{"Node":"619","Name":"GALLUR FRENTE Nº 211","Loc":{"Longitude":"-3.74015165789571","Latitude":"40.3981544746204"},"Lines":"25"},{"Node":"620","Name":"GALLUR FRENTE Nº 425","Loc":{"Longitude":"-3.7419884859228","Latitude":"40.3969445149888"},"Lines":"25"},{"Node":"621","Name":"DUQUESA DE PARCENT-GTA.LOS CARMENES","Loc":{"Longitude":"-3.74426992274654","Latitude":"40.3954523884706"},"Lines":"25 | 31 | N18"},{"Node":"622","Name":"DUQUESA DE PARCENT-GTA.LOS CARMENES","Loc":{"Longitude":"-3.7440912020903","Latitude":"40.3952733558059"},"Lines":"25 | 31 | N18"},{"Node":"623","Name":"DUQUESA DE PARCENT Nº 54","Loc":{"Longitude":"-3.74775959083793","Latitude":"40.3956100880992"},"Lines":"25 | 31 | N18"},{"Node":"624","Name":"DUQUESA DE PARCENT Nº 54","Loc":{"Longitude":"-3.74760437624126","Latitude":"40.3954264045778"},"Lines":"25 | 31 | N18"},{"Node":"625","Name":"DUQUESA DE PARCENT-CUART DE POBLET","Loc":{"Longitude":"-3.75129883543353","Latitude":"40.3960196142237"},"Lines":"25 | 31 | N18"},{"Node":"626","Name":"DUQUESA DE PARCENT-CUART DE POBLET","Loc":{"Longitude":"-3.75127604798621","Latitude":"40.3958575990449"},"Lines":"25 | 31 | N18"},{"Node":"627","Name":"CTRA.BARRIO DE LA FORTUNA-AV.AVIACION","Loc":{"Longitude":"-3.76585996521473","Latitude":"40.3727619046755"},"Lines":"155"},{"Node":"628","Name":"AV.DE LA PESETA-CTRA.BARRIO LA FORTUNA","Loc":{"Longitude":"-3.76599494367184","Latitude":"40.3694952168349"},"Lines":"155"},{"Node":"629","Name":"CAMARENA-ILLESCAS","Loc":{"Longitude":"-3.75578210785889","Latitude":"40.3923552845161"},"Lines":"25 | N18"},{"Node":"630","Name":"CAMARENA-ILLESCAS","Loc":{"Longitude":"-3.75564187710853","Latitude":"40.392360704212"},"Lines":"25 | N18"},{"Node":"631","Name":"ILLESCAS-VALMOJADO","Loc":{"Longitude":"-3.75801514845638","Latitude":"40.3925343832363"},"Lines":"25 | 121 | N18"},{"Node":"632","Name":"ILLESCAS-VALMOJADO","Loc":{"Longitude":"-3.75772339982696","Latitude":"40.3923921477178"},"Lines":"25"},{"Node":"633","Name":"ILLESCAS-TEMBLEQUE","Loc":{"Longitude":"-3.76108224549821","Latitude":"40.3931088629114"},"Lines":"25 | 121"},{"Node":"634","Name":"ILLESCAS-TEMBLEQUE","Loc":{"Longitude":"-3.7609384286944","Latitude":"40.3928935906847"},"Lines":"25 | 121"},{"Node":"635","Name":"ILLESCAS-ESCALONA","Loc":{"Longitude":"-3.76449660452958","Latitude":"40.3959962956909"},"Lines":"25 | 121"},{"Node":"636","Name":"ILLESCAS-ESCALONA","Loc":{"Longitude":"-3.76451833888461","Latitude":"40.3958339892483"},"Lines":"25 | 121"},{"Node":"637","Name":"AV.DE LA PESETA-VALLE DEL BOI","Loc":{"Longitude":"-3.76387587955166","Latitude":"40.3657118795347"},"Lines":"155"},{"Node":"638","Name":"SESEÑA-ILLESCAS","Loc":{"Longitude":"-3.7655345381744","Latitude":"40.3971245787078"},"Lines":"25"},{"Node":"639","Name":"NTRA.SRA.VALVANERA-LAGUNA","Loc":{"Longitude":"-3.74236937961438","Latitude":"40.3940681834884"},"Lines":"25 | 55 | 119"},{"Node":"640","Name":"AV.DE LA PESETA-PINAR DE SAN JOSE","Loc":{"Longitude":"-3.76248952160148","Latitude":"40.3634372082334"},"Lines":"35 | 155 | N17"},{"Node":"641","Name":"CORACEROS-AV.ARQUEROS","Loc":{"Longitude":"-3.79793555395916","Latitude":"40.3772795962645"},"Lines":"139"},{"Node":"642","Name":"AV.ARQUEROS-Pº LANCEROS","Loc":{"Longitude":"-3.7943314885396","Latitude":"40.3805431358366"},"Lines":"139"},{"Node":"643","Name":"AV.ARQUEROS Nº 1","Loc":{"Longitude":"-3.79158846166978","Latitude":"40.3826295007964"},"Lines":"139"},{"Node":"644","Name":"AV.AVIACION-MEDINA DEL CAMPO","Loc":{"Longitude":"-3.78684869253215","Latitude":"40.3812023373964"},"Lines":"39 | 139 | N19"},{"Node":"645","Name":"AV.AVIACION-MEDINA DEL CAMPO","Loc":{"Longitude":"-3.78672861708211","Latitude":"40.3814193708867"},"Lines":"139"},{"Node":"646","Name":"AV.AVIACION-MONROY","Loc":{"Longitude":"-3.78381055366781","Latitude":"40.3779481450629"},"Lines":"39 | 139 | N19"},{"Node":"647","Name":"AV.AVIACION-MONROY","Loc":{"Longitude":"-3.78373328256405","Latitude":"40.3781423631451"},"Lines":"39 | 139 | N19"},{"Node":"649","Name":"AV.DE LA PESETA-AV.CARABANCHEL ALTO","Loc":{"Longitude":"-3.75466299877891","Latitude":"40.3625380102956"},"Lines":"35 | 118 | 155"},{"Node":"650","Name":"AV.AVIACION-SINFONIA","Loc":{"Longitude":"-3.77635035985708","Latitude":"40.3748136916937"},"Lines":"139"},{"Node":"651","Name":"AV.AVIACION-VALLE INCLAN","Loc":{"Longitude":"-3.77577948289821","Latitude":"40.3748850856212"},"Lines":"117"},{"Node":"652","Name":"RAFAEL FINAT-GRAL.SALIQUET","Loc":{"Longitude":"-3.77292607250497","Latitude":"40.3752645291805"},"Lines":"139"},{"Node":"653","Name":"RAFAEL FINAT-GRAL.SALIQUET","Loc":{"Longitude":"-3.77308800199883","Latitude":"40.375389575403"},"Lines":"117"},{"Node":"654","Name":"AV.GRAL.FANJUL-JOSE CADALSO","Loc":{"Longitude":"-3.77147714414224","Latitude":"40.3829589326589"},"Lines":"139"},{"Node":"655","Name":"AV.GRAL.FANJUL-JOSE CADALSO","Loc":{"Longitude":"-3.77225775305929","Latitude":"40.3829672430147"},"Lines":"139"},{"Node":"656","Name":"AV.GRAL.FANJUL-EST.RENFE FANJUL","Loc":{"Longitude":"-3.76807555914606","Latitude":"40.3836977659011"},"Lines":"139"},{"Node":"657","Name":"AV.GRAL.FANJUL-EST.RENFE FANJUL","Loc":{"Longitude":"-3.7681328240068","Latitude":"40.3838775674547"},"Lines":"139"},{"Node":"658","Name":"AV.POBLADOS-INTERCAMBIADOR ALUCHE","Loc":{"Longitude":"-3.76087129627859","Latitude":"40.3848219100316"},"Lines":"121 | 131 | 139"},{"Node":"659","Name":"AV.POBLADOS-INTERCAMBIADOR ALUCHE","Loc":{"Longitude":"-3.76116761130187","Latitude":"40.3854055522669"},"Lines":"121 | 131 | 139"},{"Node":"660","Name":"AV.POBLADOS-COMISARIA","Loc":{"Longitude":"-3.75779828338099","Latitude":"40.3818420388191"},"Lines":"121 | 131 | 139"},{"Node":"661","Name":"AV.POBLADOS-COMISARIA","Loc":{"Longitude":"-3.75805554981458","Latitude":"40.382723244432"},"Lines":"121 | 131 | 139"},{"Node":"662","Name":"AV.POBLADOS-PARQUE EUGENIA MONTIJO","Loc":{"Longitude":"-3.75591037454563","Latitude":"40.3784129091276"},"Lines":"121 | 131 | 139"},{"Node":"663","Name":"AV.POBLADOS-PARQUE EUGENIA MONTIJO","Loc":{"Longitude":"-3.75565222592923","Latitude":"40.3785046846881"},"Lines":"121 | 131 | 139"},{"Node":"664","Name":"RONDA DON BOSCO-PARAGUAYA","Loc":{"Longitude":"-3.75305313257108","Latitude":"40.3752918577064"},"Lines":"139"},{"Node":"665","Name":"Cº DE LAS CRUCES-MASCARAQUE","Loc":{"Longitude":"-3.75571240466114","Latitude":"40.3745267808871"},"Lines":"139"},{"Node":"666","Name":"Cº DE LAS CRUCES-JOSE JORDAN","Loc":{"Longitude":"-3.75743167983573","Latitude":"40.3727948129722"},"Lines":"139"},{"Node":"667","Name":"AV.POBLADOS-PARTERRE","Loc":{"Longitude":"-3.75070816560247","Latitude":"40.3767530406441"},"Lines":"121 | 131 | 139"},{"Node":"668","Name":"Pº DE LOS HUSARES Nº 24","Loc":{"Longitude":"-3.79030421125484","Latitude":"40.3803499705261"},"Lines":"139"},{"Node":"669","Name":"Pº ALABARDEROS","Loc":{"Longitude":"-3.79458090172451","Latitude":"40.3783296985825"},"Lines":"139"},{"Node":"670","Name":"GOYA-SERRANO","Loc":{"Longitude":"-3.68841291004979","Latitude":"40.4253926354518"},"Lines":"21 | 53"},{"Node":"671","Name":"GOYA-PZA.DE COLON","Loc":{"Longitude":"-3.68868862609024","Latitude":"40.4257333392431"},"Lines":"21 | 53"},{"Node":"672","Name":"GOYA-VELAZQUEZ","Loc":{"Longitude":"-3.68446227473864","Latitude":"40.4251457825016"},"Lines":"21 | 53"},{"Node":"673","Name":"GOYA-VELAZQUEZ","Loc":{"Longitude":"-3.6849960204566","Latitude":"40.4254669517124"},"Lines":"21 | 53"},{"Node":"674","Name":"GOYA-PRINCIPE VERGARA","Loc":{"Longitude":"-3.68131323424983","Latitude":"40.4250021895555"},"Lines":"21 | 53"},{"Node":"675","Name":"GOYA-PRINCIPE VERGARA","Loc":{"Longitude":"-3.68045524604706","Latitude":"40.4252594871305"},"Lines":"21 | 53"},{"Node":"676","Name":"GOYA-GRAL.DIAZ PORLIER","Loc":{"Longitude":"-3.67694941048965","Latitude":"40.4248025549159"},"Lines":"21 | 53"},{"Node":"678","Name":"ALCALA-GOYA","Loc":{"Longitude":"-3.67453709256252","Latitude":"40.4252400556862"},"Lines":"21 | 146"},{"Node":"679","Name":"ALCALA-GOYA","Loc":{"Longitude":"-3.67498638782386","Latitude":"40.42537257336"},"Lines":"21 | 43 | 53 | 146"},{"Node":"680","Name":"ALCALA-HERMOSILLA","Loc":{"Longitude":"-3.6727298807839","Latitude":"40.4260703901957"},"Lines":"21 | 43 | 53 | 146 | N5 | N7"},{"Node":"681","Name":"ALCALA-HERMOSILLA","Loc":{"Longitude":"-3.67313220443777","Latitude":"40.4262212059774"},"Lines":"21 | 43 | 53 | 146 | N5 | N7"},{"Node":"682","Name":"ALCALA-PZA.MANUEL BECERRA","Loc":{"Longitude":"-3.66979673820595","Latitude":"40.4274928011542"},"Lines":"21 | 43 | 53 | 146 | N5 | N7"},{"Node":"683","Name":"ALCALA-PZA.MANUEL BECERRA","Loc":{"Longitude":"-3.66994105515358","Latitude":"40.4277802554556"},"Lines":"21 | 43 | 53 | 146 | N5 | N7"},{"Node":"684","Name":"ALCALA-PZA.MANUEL BECERRA","Loc":{"Longitude":"-3.6678174695903","Latitude":"40.4288195505694"},"Lines":"21 | 38 | 53 | 106 | 110 | 146 | 210 | N5 | N7"},{"Node":"685","Name":"ALCALA Nº 168","Loc":{"Longitude":"-3.66645264083303","Latitude":"40.4290976839144"},"Lines":"12 | 21 | 38 | 53 | 106 | 110 | 146 | 210 | N5 | N7"},{"Node":"686","Name":"ALCALA-BOCANGEL","Loc":{"Longitude":"-3.66472810185446","Latitude":"40.4299634534841"},"Lines":"12 | 21 | 53"},{"Node":"687","Name":"AV.DE LA PESETA-PINAR DE SAN JOSE","Loc":{"Longitude":"-3.76231151986171","Latitude":"40.3640059534779"},"Lines":"35 | 155 | N17"},{"Node":"688","Name":"FCO.ALTIMIRAS-AV.LOS TOREROS","Loc":{"Longitude":"-3.66365892560011","Latitude":"40.433942567215"},"Lines":"53 | 74"},{"Node":"689","Name":"BIARRITZ","Loc":{"Longitude":"-3.6639805956968","Latitude":"40.4355578432335"},"Lines":"43 | 53 | 74 | N3"},{"Node":"690","Name":"AV.BRUSELAS Nº 48","Loc":{"Longitude":"-3.66342977397509","Latitude":"40.4381510937496"},"Lines":"43 | 53 | 74 | N3"},{"Node":"691","Name":"AV.BRUSELAS Nº 51","Loc":{"Longitude":"-3.66317354905329","Latitude":"40.4388507603202"},"Lines":"43 | 53 | 74 | N3"},{"Node":"692","Name":"AV.BRUSELAS-PZA.VENECIA","Loc":{"Longitude":"-3.66285026225791","Latitude":"40.440528288429"},"Lines":"43 | N3"},{"Node":"693","Name":"AV.BRUSELAS-PZA.VENECIA","Loc":{"Longitude":"-3.66308791906098","Latitude":"40.4406395405381"},"Lines":"43 | 53 | N3"},{"Node":"694","Name":"AV.BADAJOZ-TANATORIO","Loc":{"Longitude":"-3.65625490983384","Latitude":"40.4409577440849"},"Lines":"53 | 122 | N3"},{"Node":"695","Name":"AV.BADAJOZ-TANATORIO","Loc":{"Longitude":"-3.65632046555926","Latitude":"40.4411060213482"},"Lines":"53 | 122 | N3"},{"Node":"696","Name":"AV.BADAJOZ-MARTINEZ VILLERGAS","Loc":{"Longitude":"-3.65431632422389","Latitude":"40.4420633091367"},"Lines":"53 | 122 | N3"},{"Node":"697","Name":"TORRELAGUNA-AV.BADAJOZ","Loc":{"Longitude":"-3.65410754259768","Latitude":"40.4435644895687"},"Lines":"11"},{"Node":"698","Name":"TORRELAGUNA-AV.BADAJOZ","Loc":{"Longitude":"-3.65384095284175","Latitude":"40.4429759046345"},"Lines":"53 | 122"},{"Node":"699","Name":"TORRELAGUNA-CONDESA VENADITO","Loc":{"Longitude":"-3.6548418419803","Latitude":"40.4447315112565"},"Lines":"53 | 122"},{"Node":"700","Name":"TORRELAGUNA-CONDESA VENADITO","Loc":{"Longitude":"-3.65489919972946","Latitude":"40.4444519075282"},"Lines":"53 | 122"},{"Node":"701","Name":"TORRELAGUNA-RAMIREZ DE ARELLANO","Loc":{"Longitude":"-3.65669816581572","Latitude":"40.4478966747929"},"Lines":"53 | 122"},{"Node":"702","Name":"TORRELAGUNA-RAMIREZ DE ARELLANO","Loc":{"Longitude":"-3.65670511435487","Latitude":"40.4475497886367"},"Lines":"53"},{"Node":"703","Name":"TORRELAGUNA Nº 70","Loc":{"Longitude":"-3.65774055658036","Latitude":"40.4495844516143"},"Lines":"53"},{"Node":"704","Name":"TORRELAGUNA Nº 85","Loc":{"Longitude":"-3.65799068732573","Latitude":"40.449763210656"},"Lines":"53"},{"Node":"705","Name":"TORRELAGUNA-SORZANO","Loc":{"Longitude":"-3.65950048266683","Latitude":"40.4512275935643"},"Lines":"53"},{"Node":"706","Name":"TORRELAGUNA-RAFAEL BERGAMIN","Loc":{"Longitude":"-3.65977118604573","Latitude":"40.451171997504"},"Lines":"53"},{"Node":"707","Name":"TORRELAGUNA-JOSE SILVA","Loc":{"Longitude":"-3.66043307749622","Latitude":"40.4537357888486"},"Lines":"53"},{"Node":"708","Name":"TORRELAGUNA-JOSE SILVA","Loc":{"Longitude":"-3.66072332483904","Latitude":"40.4532656652523"},"Lines":"53"},{"Node":"709","Name":"BRISTOL-AV.BRASILIA","Loc":{"Longitude":"-3.66152379755609","Latitude":"40.4410629008946"},"Lines":"53 | 122"},{"Node":"710","Name":"LUIS CALVO-MTNEZ.IZQUIERDO","Loc":{"Longitude":"-3.6649483260696","Latitude":"40.4355748131525"},"Lines":"53 | 74"},{"Node":"711","Name":"AV.LOS TOREROS-VILLAFRANCA","Loc":{"Longitude":"-3.66466428060086","Latitude":"40.4335539177856"},"Lines":"53 | 74"},{"Node":"712","Name":"JULIO CAMBA-ALCALA","Loc":{"Longitude":"-3.66427665048953","Latitude":"40.4308128928079"},"Lines":"53"},{"Node":"714","Name":"SUERO DE QUIÑONES-LOPEZ DE HOYOS","Loc":{"Longitude":"-3.67510206899102","Latitude":"40.4440476000082"},"Lines":"1"},{"Node":"715","Name":"CARTAGENA-LOPEZ DE HOYOS","Loc":{"Longitude":"-3.67554761839799","Latitude":"40.4426125692938"},"Lines":"1"},{"Node":"716","Name":"CARTAGENA-LOPEZ DE HOYOS","Loc":{"Longitude":"-3.67581845367846","Latitude":"40.4425749529"},"Lines":"1"},{"Node":"717","Name":"CARTAGENA-CLARA DEL REY","Loc":{"Longitude":"-3.67363149950633","Latitude":"40.4396958031539"},"Lines":"1 | 72"},{"Node":"718","Name":"CARTAGENA-CLARA DEL REY","Loc":{"Longitude":"-3.6737781993913","Latitude":"40.4396634181182"},"Lines":"1 | 72"},{"Node":"719","Name":"AV.DE LA PESETA-VALLE DEL BOI","Loc":{"Longitude":"-3.76342835986876","Latitude":"40.3659130306079"},"Lines":"155"},{"Node":"720","Name":"AV.DE LA PESETA-CTRA.BARRIO LA FORTUNA","Loc":{"Longitude":"-3.76578837618672","Latitude":"40.3697173057137"},"Lines":"155"},{"Node":"721","Name":"CARTAGENA-MQUES.AHUMADA","Loc":{"Longitude":"-3.67095529120928","Latitude":"40.4373239510092"},"Lines":"1"},{"Node":"722","Name":"CARTAGENA-MQUES.AHUMADA","Loc":{"Longitude":"-3.67110766965759","Latitude":"40.4372329778383"},"Lines":"1"},{"Node":"725","Name":"AV.LOS TOREROS-FCO.SILVELA","Loc":{"Longitude":"-3.67098579805913","Latitude":"40.4320805231887"},"Lines":"1 | 74"},{"Node":"726","Name":"CARTAGENA-FCO.SILVELA","Loc":{"Longitude":"-3.67045769253278","Latitude":"40.4311376340219"},"Lines":"1 | 43 | 74"},{"Node":"727","Name":"J.ORTEGA Y GASSET-FCO.SILVELA","Loc":{"Longitude":"-3.67088111068427","Latitude":"40.4296982417158"},"Lines":"1 | 74"},{"Node":"728","Name":"J.ORTEGA Y GASSET-FCO.SILVELA","Loc":{"Longitude":"-3.67116090797953","Latitude":"40.4298632875238"},"Lines":"1 | 74"},{"Node":"729","Name":"J.ORTEGA Y GASSET-CONDE PEÑALVER","Loc":{"Longitude":"-3.67596319999836","Latitude":"40.4299254459472"},"Lines":"1 | 74"},{"Node":"730","Name":"J.ORTEGA Y GASSET-CONDE PEÑALVER","Loc":{"Longitude":"-3.67594196305248","Latitude":"40.4301598046404"},"Lines":"1 | 74"},{"Node":"731","Name":"J.ORTEGA Y GASSET-PZA.MQUES.SALAMANCA","Loc":{"Longitude":"-3.68061037736158","Latitude":"40.4301324609252"},"Lines":"1 | 74"},{"Node":"732","Name":"J.ORTEGA Y GASSET-PZA.MQUES.SALAMANCA","Loc":{"Longitude":"-3.68065528231406","Latitude":"40.4303844497326"},"Lines":"1 | 74"},{"Node":"733","Name":"J.ORTEGA Y GASSET-CLAUDIO COELLO","Loc":{"Longitude":"-3.68608600499483","Latitude":"40.4306496993319"},"Lines":"1 | 74"},{"Node":"734","Name":"PRINCESA Nº 32","Loc":{"Longitude":"-3.71441991219973","Latitude":"40.4283432151913"},"Lines":"1 | 44 | 133 | C1"},{"Node":"735","Name":"PRINCESA-ALBERTO AGUILERA","Loc":{"Longitude":"-3.71607373122696","Latitude":"40.4301528207731"},"Lines":"1 | 44 | 133 | C2 | N21"},{"Node":"736","Name":"PRINCESA-ALBERTO AGUILERA","Loc":{"Longitude":"-3.71577398713348","Latitude":"40.4302717913121"},"Lines":"1 | 44 | 133 | C1 | N21"},{"Node":"737","Name":"PRINCESA-ALTAMIRANO","Loc":{"Longitude":"-3.71755743564742","Latitude":"40.4322066996085"},"Lines":"1 | 44 | 133 | C2 | N21"},{"Node":"738","Name":"PRINCESA-HILARION ESLAVA","Loc":{"Longitude":"-3.71718075491725","Latitude":"40.4322630874591"},"Lines":"1 | 44 | 133 | C1 | N21"},{"Node":"740","Name":"PRINCESA-PZA.MONCLOA","Loc":{"Longitude":"-3.71931897956498","Latitude":"40.43460117499"},"Lines":"83 | 133"},{"Node":"743","Name":"ISAAC PERAL-PZA.CRISTO REY","Loc":{"Longitude":"-3.7176245524978","Latitude":"40.438530606666"},"Lines":"1 | 44 | 82 | 132 | C1"},{"Node":"745","Name":"SUERO DE QUIÑONES-PECHUAN","Loc":{"Longitude":"-3.67636141709255","Latitude":"40.4449861965628"},"Lines":"1"},{"Node":"751","Name":"ALCALA-AV.MENENDEZ PELAYO","Loc":{"Longitude":"-3.68083345910089","Latitude":"40.4224644629508"},"Lines":"15 | 52 | 146 | N2 | N3 | N5 | N7"},{"Node":"752","Name":"ALCALA-CASTELLO","Loc":{"Longitude":"-3.68139838453432","Latitude":"40.422483662934"},"Lines":"15 | 52 | 146 | N2 | N3 | N5 | N7"},{"Node":"753","Name":"ALCALA-AV.FELIPE II","Loc":{"Longitude":"-3.67758729834182","Latitude":"40.4239024252448"},"Lines":"146 | 152"},{"Node":"754","Name":"ALCALA-AV.FELIPE II","Loc":{"Longitude":"-3.67669978989716","Latitude":"40.4245968059763"},"Lines":"146 | N3 | N5 | N7"},{"Node":"755","Name":"ALCALA-AV.FELIPE II","Loc":{"Longitude":"-3.67613324744924","Latitude":"40.4245280428012"},"Lines":"E2 | E3 | N5 | N7"},{"Node":"756","Name":"PZA.DE TOROS DE LAS VENTAS","Loc":{"Longitude":"-3.66337882513522","Latitude":"40.4306288496162"},"Lines":"38 | 106 | 110 | 146 | 210 | N5 | N7"},{"Node":"757","Name":"PZA.DE TOROS DE LAS VENTAS","Loc":{"Longitude":"-3.66318318129544","Latitude":"40.4311164578004"},"Lines":"21 | 38 | 106 | 110 | 146 | 210 | N5 | N7"},{"Node":"758","Name":"ALCALA Nº 238","Loc":{"Longitude":"-3.65705267972478","Latitude":"40.4318946469584"},"Lines":"38 | 146 | N5"},{"Node":"759","Name":"ALCALA Nº 261","Loc":{"Longitude":"-3.65719143707254","Latitude":"40.4320695357297"},"Lines":"38 | 106 | 146 | N5 | N7"},{"Node":"760","Name":"ALCALDE LOPEZ CASERO-ALCALA","Loc":{"Longitude":"-3.6554049610871","Latitude":"40.4326472286193"},"Lines":"146"},{"Node":"761","Name":"ALCALDE LOPEZ CASERO-ALCALA","Loc":{"Longitude":"-3.65556298842466","Latitude":"40.4326057935534"},"Lines":"146"},{"Node":"762","Name":"ALCALDE LOPEZ CASERO-PZA.JOSE BANUS","Loc":{"Longitude":"-3.65572493686255","Latitude":"40.4340328078072"},"Lines":"146"},{"Node":"763","Name":"ALCALDE LOPEZ CASERO-PZA.JOSE BANUS","Loc":{"Longitude":"-3.65590310543296","Latitude":"40.4340543214311"},"Lines":"146"},{"Node":"764","Name":"JOSE DEL HIERRO-VIRGEN DE LLUC","Loc":{"Longitude":"-3.65296289013524","Latitude":"40.4349312985236"},"Lines":"48 | 146"},{"Node":"765","Name":"JOSE DEL HIERRO-VIRGEN DE LLUC","Loc":{"Longitude":"-3.65274175293338","Latitude":"40.4352298430291"},"Lines":"21"},{"Node":"766","Name":"JOSE DEL HIERRO-VIRGEN DEL SAGRARIO","Loc":{"Longitude":"-3.64982727315334","Latitude":"40.4364939834092"},"Lines":"48 | 146"},{"Node":"767","Name":"JOSE DEL HIERRO-VIRGEN DEL SAGRARIO","Loc":{"Longitude":"-3.65004255033857","Latitude":"40.4365423249022"},"Lines":"21"},{"Node":"768","Name":"JOSE DEL HIERRO-HERMANOS DE PABLO","Loc":{"Longitude":"-3.64681327987753","Latitude":"40.4379207685025"},"Lines":"48 | 146"},{"Node":"769","Name":"JOSE DEL HIERRO-MANDARINA","Loc":{"Longitude":"-3.64417624776672","Latitude":"40.4401742087914"},"Lines":"48 | 146"},{"Node":"770","Name":"JOSE DEL HIERRO-MANDARINA","Loc":{"Longitude":"-3.64429566482571","Latitude":"40.4402546256877"},"Lines":"48 | 146"},{"Node":"771","Name":"JOSE DEL HIERRO-ARTURO SORIA","Loc":{"Longitude":"-3.64169781767859","Latitude":"40.4412195010275"},"Lines":"48 | 146"},{"Node":"772","Name":"CTRA.BARRIO LA FORTUNA-JOAQUIN TURINA","Loc":{"Longitude":"-3.76561281626572","Latitude":"40.3727815570457"},"Lines":"155"},{"Node":"773","Name":"MQUES.DE HOYOS Nº 18","Loc":{"Longitude":"-3.63930965917536","Latitude":"40.4432462248678"},"Lines":"146"},{"Node":"774","Name":"GRAL.ROMERO BASART-CASUARINA","Loc":{"Longitude":"-3.7649247909108","Latitude":"40.3783221854512"},"Lines":"155"},{"Node":"775","Name":"VIRGEN DEL PORTILLO-HNOS.DE PABLO","Loc":{"Longitude":"-3.64724565367908","Latitude":"40.4394003371691"},"Lines":"48 | 146"},{"Node":"776","Name":"VIRGEN DEL PORTILLO-VIRGEN DEL SAGRARIO","Loc":{"Longitude":"-3.6503862763936","Latitude":"40.4379548119058"},"Lines":"48 | 146"},{"Node":"777","Name":"VIRGEN DEL PORTILLO-VIRGEN DE LAS NIEVES","Loc":{"Longitude":"-3.6542708391276","Latitude":"40.4360680629279"},"Lines":"48 | 146"},{"Node":"778","Name":"ALCALA-PRINCIPE DE VERGARA","Loc":{"Longitude":"-3.67965350171125","Latitude":"40.4232686938386"},"Lines":"15 | 146 | 152"},{"Node":"779","Name":"SANCHO DAVILA-MQUES.DE ZAFRA","Loc":{"Longitude":"-3.66179380474838","Latitude":"40.4252775419793"},"Lines":"12"},